{"placemarks":[{"address":"Lesserstraße 170, 22049 Hamburg","coordinates":[10.07526,53.59301,0],"engineType":"CE","exterior":"UNACCEPTABLE","fuel":42,"interior":"UNACCEPTABLE","name":"HH-GO8522","vin":"WME4513341K565439"},{"address":"Grosse Reichenstraße 7, 20457 Hamburg","coordinates":[9.99622,53.54847,0],"engineType":"CE","exterior":"UNACCEPTABLE","fuel":45,"interior":"GOOD","name":"HH-GO8480","vin":"WME4513341K412697"},{"address":"Spreenende 1 - 11, 22453 Hamburg (Umkreis 100m)","coordinates":[9.97417,53.61274,0],"engineType":"CE","exterior":"UNACCEPTABLE","fuel":57,"interior":"UNACCEPTABLE","name":"HH-GO8001","vin":"WME4513341K412709"},{"address":"Ring 2, 22043 Hamburg","coordinates":[10.07838,53.56388,0],"engineType":"CE","exterior":"GOOD","fuel":84,"interior":"GOOD","name":"HH-GO8002","vin":"WME4513341K412713"},{"address":"Kroogblöcke 32, 22119 Hamburg","coordinates":[10.09416,53.55258,0],"engineType":"CE","exterior":"GOOD","fuel":54,"interior":"GOOD","name":"HH-GO8003","vin":"WME4513341K412721"},{"address":"Am Alten Posthaus 6, 22041 Hamburg","coordinates":[10.07107,53.5708,0],"engineType":"CE","exterior":"GOOD","fuel":57,"interior":"GOOD","name":"HH-GO8004","vin":"WME4513341K412727"},{"address":"Flughafen HH (Mietwagenzentrum Ebene 1 oder 5)","coordinates":[10.00708,53.62914,0],"engineType":"CE","exterior":"GOOD","fuel":36,"interior":"GOOD","name":"HH-GO8005","vin":"WME4513341K412733"},{"address":"Schnackenburgallee 51, 22525 Hamburg","coordinates":[9.91765,53.58102,0],"engineType":"CE","exterior":"UNACCEPTABLE","fuel":96,"interior":"UNACCEPTABLE","name":"HH-GO8487","vin":"WME4513341K412755"},{"address":"Winsbergring 25, 22525 Hamburg","coordinates":[9.91283,53.5751,0],"engineType":"CE","exterior":"GOOD","fuel":100,"interior":"GOOD","name":"HH-GO8007","vin":"WME4513341K412760"},{"address":"Stoltenstraße 13, 22119 Hamburg","coordinates":[10.09509,53.56285,0],"engineType":"CE","exterior":"UNACCEPTABLE","fuel":27,"interior":"UNACCEPTABLE","name":"HH-GO8009","vin":"WME4513341K412995"},{"address":"Bergedorfer Schlossstraße 9, 21029 Hamburg","coordinates":[10.21285,53.48873,0],"engineType":"CE","exterior":"GOOD","fuel":66,"interior":"GOOD","name":"HH-GO8012","vin":"WME4513341K413026"},{"address":"Alsterdorfer Straße 511, 22337 Hamburg","coordinates":[10.0272,53.61754,0],"engineType":"CE","exterior":"GOOD","fuel":100,"interior":"GOOD","name":"HH-GO8013","vin":"WME4513341K413048"},{"address":"Winterhuder Weg 94, 22085 Hamburg","coordinates":[10.02115,53.57541,0],"engineType":"CE","exterior":"GOOD","fuel":100,"interior":"GOOD","name":"HH-GO8014","vin":"WME4513341K414254"},{"address":"Speckenreye 44, 22119 Hamburg","coordinates":[10.09865,53.55291,0],"engineType":"CE","exterior":"GOOD","fuel":100,"interior":"GOOD","name":"HH-GO8015","vin":"WME4513341K413547"},{"address":"Schiffbeker Höhe 32, 22119 Hamburg","coordinates":[10.11379,53.54571,0],"engineType":"CE","exterior":"GOOD","fuel":100,"interior":"GOOD","name":"HH-GO8017","vin":"WME4513341K414272"},{"address":"Bei der Martinskirche 2, 22111 Hamburg","coordinates":[10.08304,53.55027,0],"engineType":"CE","exterior":"GOOD","fuel":93,"interior":"GOOD","name":"HH-GO8019","vin":"WME4513341K413572"},{"address":"Stavenhagenstraße 29 - 33, 22453 Hamburg (Umkreis 100m)","coordinates":[9.96875,53.61041,0],"engineType":"CE","exterior":"GOOD","fuel":48,"interior":"GOOD","name":"HH-GO8021","vin":"WME4513341K413066"},{"address":"Parkplatz Studio Hamburg","coordinates":[10.12585,53.58416,0],"engineType":"CE","exterior":"GOOD","fuel":18,"interior":"GOOD","name":"HH-GO8024","vin":"WME4513341K413090"},{"address":"Teutonenweg 131, 22453 Hamburg","coordinates":[9.97241,53.6361,0],"engineType":"CE","exterior":"GOOD","fuel":100,"interior":"GOOD","name":"HH-GO8026","vin":"WME4513341K414308"},{"address":"Stadtbahnstraße 17, 22393 Hamburg","coordinates":[10.10799,53.65365,0],"engineType":"CE","exterior":"UNACCEPTABLE","fuel":100,"interior":"GOOD","name":"HH-GO8027","vin":"WME4513341K413105"},{"address":"Feuerbergstraße 43, 22337 Hamburg (Umkreis 100m)","coordinates":[10.02998,53.61327,0],"engineType":"CE","exterior":"GOOD","fuel":39,"interior":"GOOD","name":"HH-GO8028","vin":"WME4513341K413588"},{"address":"Semperstraße 19, 22303 Hamburg","coordinates":[10.0145,53.58543,0],"engineType":"CE","exterior":"GOOD","fuel":87,"interior":"GOOD","name":"HH-GO8029","vin":"WME4513341K414320"},{"address":"Öjendorfer Weg 81, 22119 Hamburg","coordinates":[10.11645,53.54684,0],"engineType":"CE","exterior":"GOOD","fuel":60,"interior":"GOOD","name":"HH-GO8030","vin":"WME4513341K413124"},{"address":"Flughafen HH (Mietwagenzentrum Ebene 1 oder 5)","coordinates":[10.00708,53.62914,0],"engineType":"CE","exterior":"GOOD","fuel":100,"interior":"GOOD","name":"HH-GO8597","vin":"WME4513341K413614"},{"address":"In der Niederung 8 - 10, 22047 Hamburg (Umkreis 300m)","coordinates":[10.08386,53.5959,0],"engineType":"CE","exterior":"GOOD","fuel":21,"interior":"GOOD","name":"HH-GO8034","vin":"WME4513341K413618"},{"address":"Kurze Mühren 8, 20095 Hamburg","coordinates":[10.00329,53.5529,0],"engineType":"CE","exterior":"GOOD","fuel":96,"interior":"GOOD","name":"HH-GO8035","vin":"WME4513341K414387"},{"address":"Dag-Hammarskjöld-Platz 2, 20354 Hamburg (Umkreis 100m)","coordinates":[9.98881,53.56082,0],"engineType":"CE","exterior":"UNACCEPTABLE","fuel":60,"interior":"UNACCEPTABLE","name":"HH-GO8038","vin":"WME4513341K413147"},{"address":"Kapstadtring 2, 22297 Hamburg","coordinates":[10.02811,53.60227,0],"engineType":"CE","exterior":"GOOD","fuel":57,"interior":"GOOD","name":"HH-GO8040","vin":"WME4513341K413151"},{"address":"Nedderndorfer Weg 23, 22111 Hamburg","coordinates":[10.08371,53.54916,0],"engineType":"CE","exterior":"GOOD","fuel":100,"interior":"GOOD","name":"HH-GO8042","vin":"WME4513341K413156"},{"address":"Curtiusweg 7, 20535 Hamburg","coordinates":[10.06444,53.55848,0],"engineType":"CE","exterior":"GOOD","fuel":93,"interior":"UNACCEPTABLE","name":"HH-GO8043","vin":"WME4513341K414458"},{"address":"Höperfeld 17, 21033 Hamburg","coordinates":[10.20263,53.49517,0],"engineType":"CE","exterior":"GOOD","fuel":27,"interior":"GOOD","name":"HH-GO8045","vin":"WME4513341K414466"},{"address":"Steinstraße 7, 20095 Hamburg","coordinates":[10.00395,53.55019,0],"engineType":"CE","exterior":"GOOD","fuel":100,"interior":"GOOD","name":"HH-GO8046","vin":"WME4513341K413183"},{"address":"Wrangelstraße 106, 20253 Hamburg","coordinates":[9.96579,53.58333,0],"engineType":"CE","exterior":"UNACCEPTABLE","fuel":100,"interior":"UNACCEPTABLE","name":"HH-GO8047","vin":"WME4513341K413635"},{"address":"Hachmannplatz 2, 20099 Hamburg (Umkreis 100m)","coordinates":[10.00684,53.55435,0],"engineType":"CE","exterior":"GOOD","fuel":57,"interior":"GOOD","name":"HH-GO8048","vin":"WME4513341K414473"},{"address":"Rahlau 38, 22045 Hamburg","coordinates":[10.11626,53.58015,0],"engineType":"CE","exterior":"UNACCEPTABLE","fuel":84,"interior":"UNACCEPTABLE","name":"HH-GO8049","vin":"WME4513341K413641"},{"address":"Oktaviostraße 110, 22043 Hamburg","coordinates":[10.10214,53.56732,0],"engineType":"CE","exterior":"GOOD","fuel":54,"interior":"GOOD","name":"HH-GO8050","vin":"WME4513341K413194"},{"address":"Bömelburgstieg 1, 22111 Hamburg","coordinates":[10.08627,53.54892,0],"engineType":"CE","exterior":"GOOD","fuel":78,"interior":"UNACCEPTABLE","name":"HH-GO8052","vin":"WME4513341K413650"},{"address":"Rhiemsweg 12, 22111 Hamburg","coordinates":[10.07491,53.55548,0],"engineType":"CE","exterior":"UNACCEPTABLE","fuel":100,"interior":"UNACCEPTABLE","name":"HH-GO8053","vin":"WME4513341K414479"},{"address":"Stein-Hardenberg-Straße 58 - 60, 22045 Hamburg (Umkreis 100m)","coordinates":[10.12226,53.58647,0],"engineType":"CE","exterior":"GOOD","fuel":69,"interior":"GOOD","name":"HH-GO8055","vin":"WME4513341K413659"},{"address":"Eichenhag 3, 22453 Hamburg","coordinates":[9.95918,53.61119,0],"engineType":"CE","exterior":"GOOD","fuel":48,"interior":"GOOD","name":"HH-GO8056","vin":"WME4513341K414485"},{"address":"Silbersackstraße 5, 20359 Hamburg","coordinates":[9.96004,53.54916,0],"engineType":"CE","exterior":"GOOD","fuel":96,"interior":"GOOD","name":"HH-GO8058","vin":"WME4513341K413699"},{"address":"Ohlstücken 5, 21033 Hamburg","coordinates":[10.2053,53.49476,0],"engineType":"CE","exterior":"GOOD","fuel":51,"interior":"GOOD","name":"HH-GO8059","vin":"WME4513341K414493"},{"address":"Garstedter Weg 248, 22453 Hamburg","coordinates":[9.96901,53.63708,0],"engineType":"CE","exterior":"GOOD","fuel":81,"interior":"GOOD","name":"HH-GO8592","vin":"WME4513341K413227"},{"address":"Hansehof","coordinates":[10.12173,53.57905,0],"engineType":"CE","exterior":"GOOD","fuel":54,"interior":"GOOD","name":"HH-GO8061","vin":"WME4513341K413707"},{"address":"Ilenkruut 24, 22179 Hamburg","coordinates":[10.06436,53.59463,0],"engineType":"CE","exterior":"GOOD","fuel":60,"interior":"GOOD","name":"HH-GO8064","vin":"WME4513341K414505"},{"address":"Neumayerstraße 3, 20459 Hamburg","coordinates":[9.97354,53.54829,0],"engineType":"CE","exterior":"GOOD","fuel":100,"interior":"GOOD","name":"HH-GO8065","vin":"WME4513341K413233"},{"address":"Ernst-Merck-Straße 4 - 14, 20099 Hamburg (Umkreis 300m)","coordinates":[10.00486,53.55403,0],"engineType":"CE","exterior":"GOOD","fuel":87,"interior":"GOOD","name":"HH-GO8318","vin":"WME4513341K413721"},{"address":"Domplatz, 20095 Hamburg","coordinates":[9.99774,53.54879,0],"engineType":"CE","exterior":"GOOD","fuel":90,"interior":"UNACCEPTABLE","name":"HH-GO8067","vin":"WME4513341K414511"},{"address":"Klosterwall 3, 20095 Hamburg","coordinates":[10.00596,53.54982,0],"engineType":"CE","exterior":"GOOD","fuel":57,"interior":"UNACCEPTABLE","name":"HH-GO8069","vin":"WME4513341K413265"},{"address":"Gottschedstraße 11, 22301 Hamburg","coordinates":[10.0116,53.58832,0],"engineType":"CE","exterior":"GOOD","fuel":100,"interior":"GOOD","name":"HH-GO8070","vin":"WME4513341K413746"},{"address":"Saseler Loge 12, 22393 Hamburg","coordinates":[10.10302,53.65171,0],"engineType":"CE","exterior":"GOOD","fuel":100,"interior":"UNACCEPTABLE","name":"HH-GO8075","vin":"WME4513341K413762"},{"address":"Schatzmeisterstraße 14, 22043 Hamburg","coordinates":[10.07798,53.56894,0],"engineType":"CE","exterior":"GOOD","fuel":93,"interior":"GOOD","name":"HH-GO8076","vin":"WME4513341K414544"},{"address":"Schopenstehl 30, 20095 Hamburg","coordinates":[9.99815,53.54867,0],"engineType":"CE","exterior":"GOOD","fuel":27,"interior":"GOOD","name":"HH-GO8079","vin":"WME4513341K413315"},{"address":"Schnackenburgallee 52, 22525 Hamburg","coordinates":[9.91815,53.58024,0],"engineType":"CE","exterior":"GOOD","fuel":78,"interior":"GOOD","name":"HH-GO8080","vin":"WME4513341K414566"},{"address":"Ballindamm 14, 20095 Hamburg","coordinates":[9.9987,53.55417,0],"engineType":"CE","exterior":"UNACCEPTABLE","fuel":60,"interior":"UNACCEPTABLE","name":"HH-GO8081","vin":"WME4513341K413782"},{"address":"Parkhaus Bleichenhof, Parkdeck R","coordinates":[9.98673,53.55201,0],"engineType":"CE","exterior":"GOOD","fuel":66,"interior":"GOOD","name":"HH-GO8082","vin":"WME4513341K413320"},{"address":"Hachmannplatz 2, 20099 Hamburg (Umkreis 100m)","coordinates":[10.00663,53.55446,0],"engineType":"CE","exterior":"UNACCEPTABLE","fuel":51,"interior":"UNACCEPTABLE","name":"HH-GO8084","vin":"WME4513341K414571"},{"address":"Randstraße 104, 22525 Hamburg (Umkreis 300m)","coordinates":[9.91933,53.59068,0],"engineType":"CE","exterior":"GOOD","fuel":100,"interior":"UNACCEPTABLE","name":"HH-GO8085","vin":"WME4513341K413325"},{"address":"Paul-Sorge-Straße 141, 22455 Hamburg","coordinates":[9.95146,53.63552,0],"engineType":"CE","exterior":"GOOD","fuel":51,"interior":"GOOD","name":"HH-GO8086","vin":"WME4513341K413339"},{"address":"Alstertor 21, 20095 Hamburg","coordinates":[9.99695,53.55266,0],"engineType":"CE","exterior":"GOOD","fuel":100,"interior":"GOOD","name":"HH-GO8088","vin":"WME4513341K414592"},{"address":"Neue Burg 1, 20457 Hamburg","coordinates":[9.99195,53.54754,0],"engineType":"CE","exterior":"GOOD","fuel":100,"interior":"GOOD","name":"HH-GO8089","vin":"WME4513341K413803"},{"address":"Am Brink 1, 21029 Hamburg","coordinates":[10.21669,53.48579,0],"engineType":"CE","exterior":"GOOD","fuel":100,"interior":"UNACCEPTABLE","name":"HH-GO8092","vin":"WME4513341K413843"},{"address":"Schmuckshöhe 3, 22337 Hamburg","coordinates":[10.03799,53.61135,0],"engineType":"CE","exterior":"GOOD","fuel":51,"interior":"GOOD","name":"HH-GO8093","vin":"WME4513341K414623"},{"address":"Rudolf-Ross-Allee 9, 22119 Hamburg","coordinates":[10.10105,53.55865,0],"engineType":"CE","exterior":"GOOD","fuel":100,"interior":"GOOD","name":"HH-GO8094","vin":"WME4513341K413369"},{"address":"Grosser Grasbrook 13, 20457 Hamburg","coordinates":[9.99383,53.54101,0],"engineType":"CE","exterior":"GOOD","fuel":57,"interior":"GOOD","name":"HH-GO8095","vin":"WME4513341K414630"},{"address":"Kollaustraße 74, 22453 Hamburg","coordinates":[9.96133,53.6067,0],"engineType":"CE","exterior":"GOOD","fuel":66,"interior":"GOOD","name":"HH-GO8096","vin":"WME4513341K413375"},{"address":"Rondenbarg 15, 22525 Hamburg","coordinates":[9.92448,53.57397,0],"engineType":"CE","exterior":"GOOD","fuel":63,"interior":"GOOD","name":"HH-GO8097","vin":"WME4513341K413852"},{"address":"Otzenstraße 44 - 46, 22767 Hamburg (Umkreis 100m)","coordinates":[9.95681,53.557,0],"engineType":"CE","exterior":"GOOD","fuel":48,"interior":"GOOD","name":"HH-GO8100","vin":"WME4513341K413856"},{"address":"Luisenweg 37, 20537 Hamburg","coordinates":[10.04926,53.55271,0],"engineType":"CE","exterior":"GOOD","fuel":100,"interior":"GOOD","name":"HH-GO8102","vin":"WME4513341K413393"},{"address":"Sportplatzring 15, 22527 Hamburg","coordinates":[9.93146,53.59233,0],"engineType":"CE","exterior":"GOOD","fuel":57,"interior":"GOOD","name":"HH-GO8103","vin":"WME4513341K413860"},{"address":"Lohhof 22 - 26, 20535 Hamburg (Umkreis 100m)","coordinates":[10.05332,53.55912,0],"engineType":"CE","exterior":"GOOD","fuel":69,"interior":"GOOD","name":"HH-GO8106","vin":"WME4513341K413871"},{"address":"Theodor-Heuss-Platz 2, 20148 Hamburg","coordinates":[9.99072,53.56133,0],"engineType":"CE","exterior":"GOOD","fuel":51,"interior":"GOOD","name":"HH-GO8107","vin":"WME4513341K413412"},{"address":"Spliedtring 33, 22119 Hamburg","coordinates":[10.11205,53.56233,0],"engineType":"CE","exterior":"GOOD","fuel":90,"interior":"GOOD","name":"HH-GO8481","vin":"WME4513341K414665"},{"address":"Hainbuchenweg 14, 22299 Hamburg","coordinates":[10.00014,53.60131,0],"engineType":"CE","exterior":"GOOD","fuel":60,"interior":"GOOD","name":"HH-GO8111","vin":"WME4513341K414672"},{"address":"Flughafen HH (Mietwagenzentrum Ebene 1 oder 5)","coordinates":[10.00708,53.62914,0],"engineType":"CE","exterior":"GOOD","fuel":18,"interior":"GOOD","name":"HH-GO8113","vin":"WME4513341K413939"},{"address":"Am Sandtorkai 44, 20457 Hamburg","coordinates":[9.99663,53.54375,0],"engineType":"CE","exterior":"UNACCEPTABLE","fuel":90,"interior":"GOOD","name":"HH-GO8116","vin":"WME4513341K413944"},{"address":"Renettenweg 14, 22393 Hamburg","coordinates":[10.10159,53.64476,0],"engineType":"CE","exterior":"UNACCEPTABLE","fuel":69,"interior":"UNACCEPTABLE","name":"HH-GO8117","vin":"WME4513341K414714"},{"address":"Friedrich-Ebert-Straße 42, 22459 Hamburg","coordinates":[9.94194,53.62207,0],"engineType":"CE","exterior":"GOOD","fuel":100,"interior":"GOOD","name":"HH-GO8124","vin":"WME4513341K413510"},{"address":"Haldesdorfer Straße 87, 22179 Hamburg","coordinates":[10.0763,53.59911,0],"engineType":"CE","exterior":"GOOD","fuel":100,"interior":"GOOD","name":"HH-GO8125","vin":"WME4513341K414757"},{"address":"Meriandamm 2, 22119 Hamburg","coordinates":[10.11097,53.55113,0],"engineType":"CE","exterior":"GOOD","fuel":42,"interior":"GOOD","name":"HH-GO8126","vin":"WME4513341K414001"},{"address":"Bauernvogtkoppel 9, 22393 Hamburg","coordinates":[10.09807,53.6451,0],"engineType":"CE","exterior":"GOOD","fuel":81,"interior":"GOOD","name":"HH-GO8127","vin":"WME4513341K413514"},{"address":"Rödingsmarkt 14, 20459 Hamburg","coordinates":[9.98535,53.54669,0],"engineType":"CE","exterior":"UNACCEPTABLE","fuel":27,"interior":"GOOD","name":"HH-GO8128","vin":"WME4513341K414768"},{"address":"Chrysanderstraße 21, 21029 Hamburg","coordinates":[10.21538,53.48767,0],"engineType":"CE","exterior":"UNACCEPTABLE","fuel":100,"interior":"GOOD","name":"HH-GO8484","vin":"WME4513341K413518"},{"address":"Am Sandtorkai 44, 20457 Hamburg","coordinates":[9.99684,53.54379,0],"engineType":"CE","exterior":"GOOD","fuel":51,"interior":"GOOD","name":"HH-GO8130","vin":"WME4513341K414025"},{"address":"Parkhaus Am Hauptbahnhof, Parkdeck 5","coordinates":[10.00964,53.55471,0],"engineType":"CE","exterior":"GOOD","fuel":39,"interior":"GOOD","name":"HH-GO8131","vin":"WME4513341K414776"},{"address":"Markusstraße 8, 20355 Hamburg","coordinates":[9.97934,53.55152,0],"engineType":"CE","exterior":"GOOD","fuel":87,"interior":"GOOD","name":"HH-GO8132","vin":"WME4513341K414049"},{"address":"Ernst-Horn-Straße 18, 22525 Hamburg","coordinates":[9.92783,53.58232,0],"engineType":"CE","exterior":"GOOD","fuel":33,"interior":"GOOD","name":"HH-GO8133","vin":"WME4513341K414784"},{"address":"Robert-Schuman-Brücke 6, 22041 Hamburg","coordinates":[10.07167,53.57124,0],"engineType":"CE","exterior":"UNACCEPTABLE","fuel":100,"interior":"UNACCEPTABLE","name":"HH-GO8136","vin":"WME4513341K414893"},{"address":"Tonndorfer Hauptstraße 72, 22045 Hamburg","coordinates":[10.12355,53.58567,0],"engineType":"CE","exterior":"GOOD","fuel":66,"interior":"GOOD","name":"HH-GO8137","vin":"WME4513341K414157"},{"address":"Moosrosenweg 6, 22177 Hamburg","coordinates":[10.06891,53.6031,0],"engineType":"CE","exterior":"UNACCEPTABLE","fuel":100,"interior":"GOOD","name":"HH-GO8549","vin":"WME4513341K414165"},{"address":"Kirchenallee 23 - 27, 20099 Hamburg (Umkreis 100m)","coordinates":[10.00777,53.55549,0],"engineType":"CE","exterior":"GOOD","fuel":100,"interior":"GOOD","name":"HH-GO8140","vin":"WME4513341K414172"},{"address":"Kedenburgstraße 32, 22041 Hamburg","coordinates":[10.08741,53.57689,0],"engineType":"CE","exterior":"GOOD","fuel":21,"interior":"UNACCEPTABLE","name":"HH-GO8141","vin":"WME4513341K414851"},{"address":"Klapperhof 3, 21033 Hamburg","coordinates":[10.20175,53.49559,0],"engineType":"CE","exterior":"UNACCEPTABLE","fuel":93,"interior":"UNACCEPTABLE","name":"HH-GO8143","vin":"WME4513341K414177"},{"address":"Am Sandtorkai 66, 20457 Hamburg","coordinates":[9.98764,53.54287,0],"engineType":"CE","exterior":"GOOD","fuel":75,"interior":"GOOD","name":"HH-GO8319","vin":"WME4513341K414189"},{"address":"Marseiller Straße 5, 20355 Hamburg (Umkreis 300m)","coordinates":[9.98518,53.56062,0],"engineType":"CE","exterior":"GOOD","fuel":63,"interior":"UNACCEPTABLE","name":"HH-GO8148","vin":"WME4513341K414193"},{"address":"Walddörferstraße 366, 22047 Hamburg","coordinates":[10.10183,53.58549,0],"engineType":"CE","exterior":"UNACCEPTABLE","fuel":100,"interior":"UNACCEPTABLE","name":"HH-GO8149","vin":"WME4513341K414881"},{"address":"Nesselstraße 8, 22335 Hamburg","coordinates":[10.01665,53.62072,0],"engineType":"CE","exterior":"GOOD","fuel":33,"interior":"GOOD","name":"HH-GO8150","vin":"WME4513341K414909"},{"address":"Alsterdorfer Straße 350, 22297 Hamburg","coordinates":[10.01491,53.61137,0],"engineType":"CE","exterior":"GOOD","fuel":69,"interior":"GOOD","name":"HH-GO8151","vin":"WME4513341K414197"},{"address":"Alsterdorfer Straße 375, 22297 Hamburg","coordinates":[10.01665,53.61279,0],"engineType":"CE","exterior":"UNACCEPTABLE","fuel":60,"interior":"UNACCEPTABLE","name":"HH-GO8152","vin":"WME4513341K414887"},{"address":"Stresemannstraße 250 - 266, 22769 Hamburg (Umkreis 100m)","coordinates":[9.93727,53.5638,0],"engineType":"CE","exterior":"GOOD","fuel":48,"interior":"GOOD","name":"HH-GO8153","vin":"WME4513341K414209"},{"address":"Lisztstraße 14, 22763 Hamburg","coordinates":[9.91516,53.55383,0],"engineType":"CE","exterior":"GOOD","fuel":69,"interior":"UNACCEPTABLE","name":"HH-GO8154","vin":"WME4513341K414921"},{"address":"Badestraße 35, 20148 Hamburg","coordinates":[9.99913,53.56621,0],"engineType":"CE","exterior":"UNACCEPTABLE","fuel":48,"interior":"GOOD","name":"HH-GO8155","vin":"WME4513341K414928"},{"address":"Eiffestraße 454, 20537 Hamburg","coordinates":[10.04758,53.55231,0],"engineType":"CE","exterior":"UNACCEPTABLE","fuel":75,"interior":"UNACCEPTABLE","name":"HH-GO8160","vin":"WME4513341K414952"},{"address":"New-York-Ring 9, 22297 Hamburg","coordinates":[10.01919,53.60369,0],"engineType":"CE","exterior":"GOOD","fuel":54,"interior":"GOOD","name":"HH-GO8165","vin":"WME4513341K417757"},{"address":"Hafentor 7, 20459 Hamburg","coordinates":[9.97277,53.54597,0],"engineType":"CE","exterior":"UNACCEPTABLE","fuel":84,"interior":"UNACCEPTABLE","name":"HH-GO8166","vin":"WME4513341K414974"},{"address":"Bundsensweg 13, 20537 Hamburg","coordinates":[10.06563,53.55252,0],"engineType":"CE","exterior":"GOOD","fuel":39,"interior":"GOOD","name":"HH-GO8167","vin":"WME4513341K414986"},{"address":"Alsterdorfer Straße 548, 22337 Hamburg","coordinates":[10.0303,53.61897,0],"engineType":"CE","exterior":"GOOD","fuel":100,"interior":"GOOD","name":"HH-GO8168","vin":"WME4513341K417815"},{"address":"Quickbornstraße 24, 20253 Hamburg","coordinates":[9.96068,53.58044,0],"engineType":"CE","exterior":"GOOD","fuel":45,"interior":"GOOD","name":"HH-GO8169","vin":"WME4513341K414992"},{"address":"Parkplatz Studio Hamburg","coordinates":[10.12585,53.58416,0],"engineType":"CE","exterior":"UNACCEPTABLE","fuel":36,"interior":"GOOD","name":"HH-GO8170","vin":"WME4513341K414997"},{"address":"Flughafen HH (Mietwagenzentrum Ebene 1 oder 5)","coordinates":[10.00708,53.62914,0],"engineType":"CE","exterior":"UNACCEPTABLE","fuel":27,"interior":"UNACCEPTABLE","name":"HH-GO8172","vin":"WME4513341K415005"},{"address":"Kurt-Schumacher-Allee 41, 20097 Hamburg","coordinates":[10.01662,53.55194,0],"engineType":"CE","exterior":"GOOD","fuel":30,"interior":"GOOD","name":"HH-GO8173","vin":"WME4513341K415436"},{"address":"Kattrepelsbrücke 1, 20095 Hamburg","coordinates":[9.99942,53.54846,0],"engineType":"CE","exterior":"GOOD","fuel":60,"interior":"GOOD","name":"HH-GO8175","vin":"WME4513341K415025"},{"address":"Weidestraße 122, 22083 Hamburg","coordinates":[10.02771,53.58184,0],"engineType":"CE","exterior":"GOOD","fuel":100,"interior":"GOOD","name":"HH-GO8177","vin":"WME4513341K415040"},{"address":"Rathenaustraße 228, 22337 Hamburg","coordinates":[10.02829,53.61953,0],"engineType":"CE","exterior":"GOOD","fuel":69,"interior":"GOOD","name":"HH-GO8178","vin":"WME4513341K415075"},{"address":"Ring 2, 22111 Hamburg","coordinates":[10.08206,53.55737,0],"engineType":"CE","exterior":"GOOD","fuel":100,"interior":"UNACCEPTABLE","name":"HH-GO8179","vin":"WME4513341K415082"},{"address":"Grindelberg 62 - 66, 20144 Hamburg (Umkreis 100m)","coordinates":[9.97883,53.57517,0],"engineType":"CE","exterior":"UNACCEPTABLE","fuel":42,"interior":"UNACCEPTABLE","name":"HH-GO8181","vin":"WME4513341K415106"},{"address":"Parkallee 64, 20144 Hamburg","coordinates":[9.98428,53.57787,0],"engineType":"CE","exterior":"GOOD","fuel":57,"interior":"GOOD","name":"HH-GO8183","vin":"WME4513341K415112"},{"address":"Husarenweg, 22043 Hamburg","coordinates":[10.10031,53.56755,0],"engineType":"CE","exterior":"UNACCEPTABLE","fuel":69,"interior":"UNACCEPTABLE","name":"HH-GO8184","vin":"WME4513341K415117"},{"address":"Bostelreihe 2, 22083 Hamburg (Umkreis 100m)","coordinates":[10.03142,53.57393,0],"engineType":"CE","exterior":"UNACCEPTABLE","fuel":90,"interior":"GOOD","name":"HH-GO8186","vin":"WME4513341K415136"},{"address":"Schottmüllerstraße 19, 20251 Hamburg","coordinates":[9.9849,53.59121,0],"engineType":"CE","exterior":"GOOD","fuel":60,"interior":"GOOD","name":"HH-GO8190","vin":"WME4513341K415443"},{"address":"König-Heinrich-Weg 29, 22459 Hamburg","coordinates":[9.95575,53.6272,0],"engineType":"CE","exterior":"GOOD","fuel":51,"interior":"GOOD","name":"HH-GO8191","vin":"WME4513341K415148"},{"address":"Bernstorffstraße 153, 22767 Hamburg","coordinates":[9.95953,53.55974,0],"engineType":"CE","exterior":"GOOD","fuel":30,"interior":"GOOD","name":"HH-GO8192","vin":"WME4513341K415158"},{"address":"Grosser Grasbrook 12, 20457 Hamburg","coordinates":[9.99354,53.54116,0],"engineType":"CE","exterior":"UNACCEPTABLE","fuel":39,"interior":"GOOD","name":"HH-GO8193","vin":"WME4513341K416380"},{"address":"Ludwig-Rosenberg-Ring 27, 21031 Hamburg","coordinates":[10.20899,53.49317,0],"engineType":"CE","exterior":"GOOD","fuel":36,"interior":"GOOD","name":"HH-GO8477","vin":"WME4513341K416375"},{"address":"Kannengiesserort 5, 20457 Hamburg","coordinates":[9.99526,53.54473,0],"engineType":"CE","exterior":"GOOD","fuel":39,"interior":"GOOD","name":"HH-GO8200","vin":"WME4513341K415465"},{"address":"Wiedehopfstieg 9, 22179 Hamburg","coordinates":[10.06819,53.59284,0],"engineType":"CE","exterior":"GOOD","fuel":100,"interior":"GOOD","name":"HH-GO8201","vin":"WME4513341K417947"},{"address":"Am Stadtrand 59, 22047 Hamburg","coordinates":[10.09817,53.59243,0],"engineType":"CE","exterior":"GOOD","fuel":96,"interior":"GOOD","name":"HH-GO8202","vin":"WME4513341K415185"},{"address":"Am Gojenboom 23, 22111 Hamburg (Umkreis 100m)","coordinates":[10.07741,53.55391,0],"engineType":"CE","exterior":"UNACCEPTABLE","fuel":33,"interior":"UNACCEPTABLE","name":"HH-GO8203","vin":"WME4513341K415196"},{"address":"Wellingsbütteler Landstraße 3, 22337 Hamburg","coordinates":[10.0306,53.62605,0],"engineType":"CE","exterior":"GOOD","fuel":57,"interior":"GOOD","name":"HH-GO8204","vin":"WME4513341K415204"},{"address":"Ebeersreye 111, 22159 Hamburg","coordinates":[10.11658,53.59508,0],"engineType":"CE","exterior":"UNACCEPTABLE","fuel":39,"interior":"UNACCEPTABLE","name":"HH-GO8206","vin":"WME4513341K415228"},{"address":"Ohmoorring 11, 22455 Hamburg","coordinates":[9.96113,53.63741,0],"engineType":"CE","exterior":"GOOD","fuel":100,"interior":"GOOD","name":"HH-GO8208","vin":"WME4513341K415236"},{"address":"Holstenhofweg 85, 22043 Hamburg (Umkreis 300m)","coordinates":[10.10577,53.56968,0],"engineType":"CE","exterior":"UNACCEPTABLE","fuel":51,"interior":"UNACCEPTABLE","name":"HH-GO8486","vin":"WME4513341K415329"},{"address":"Alsterdorfer Straße 201, 22297 Hamburg","coordinates":[10.00194,53.60634,0],"engineType":"CE","exterior":"GOOD","fuel":72,"interior":"GOOD","name":"HH-GO8214","vin":"WME4513341K416363"},{"address":"Neumühlen 25, 22763 Hamburg","coordinates":[9.91835,53.54421,0],"engineType":"CE","exterior":"GOOD","fuel":42,"interior":"GOOD","name":"HH-GO8216","vin":"WME4513341K415525"},{"address":"Domstraße 18, 20095 Hamburg","coordinates":[9.99532,53.54891,0],"engineType":"CE","exterior":"GOOD","fuel":72,"interior":"GOOD","name":"HH-GO8217","vin":"WME4513341K415345"},{"address":"Kieler Straße 103, 22769 Hamburg","coordinates":[9.94337,53.57106,0],"engineType":"CE","exterior":"UNACCEPTABLE","fuel":45,"interior":"GOOD","name":"HH-GO8218","vin":"WME4513341K415539"},{"address":"Alsterdorfer Straße 485, 22337 Hamburg","coordinates":[10.02481,53.61634,0],"engineType":"CE","exterior":"GOOD","fuel":81,"interior":"UNACCEPTABLE","name":"HH-GO8221","vin":"WME4513341K416350"},{"address":"Borsteler Chaussee 97, 22453 Hamburg","coordinates":[9.98013,53.60652,0],"engineType":"CE","exterior":"GOOD","fuel":100,"interior":"GOOD","name":"HH-GO8222","vin":"WME4513341K415572"},{"address":"Ring 1, 20355 Hamburg","coordinates":[9.97844,53.55467,0],"engineType":"CE","exterior":"GOOD","fuel":30,"interior":"GOOD","name":"HH-GO8223","vin":"WME4513341K415365"},{"address":"Tegelweg 105, 22159 Hamburg","coordinates":[10.10863,53.60228,0],"engineType":"CE","exterior":"GOOD","fuel":100,"interior":"GOOD","name":"HH-GO8225","vin":"WME4513341K415589"},{"address":"Flughafen HH (Mietwagenzentrum Ebene 1 oder 5)","coordinates":[10.00708,53.62914,0],"engineType":"CE","exterior":"GOOD","fuel":51,"interior":"GOOD","name":"HH-GO8226","vin":"WME4513341K415374"},{"address":"Marseiller Straße 5, 20355 Hamburg","coordinates":[9.98516,53.56045,0],"engineType":"CE","exterior":"UNACCEPTABLE","fuel":30,"interior":"UNACCEPTABLE","name":"HH-GO8227","vin":"WME4513341K416335"},{"address":"Lutterothstraße 19, 20255 Hamburg","coordinates":[9.95488,53.57996,0],"engineType":"CE","exterior":"GOOD","fuel":69,"interior":"GOOD","name":"HH-GO8228","vin":"WME4513341K415597"},{"address":"Am Sandtorkai 62, 20457 Hamburg (Umkreis 100m)","coordinates":[9.9898,53.5431,0],"engineType":"CE","exterior":"GOOD","fuel":42,"interior":"GOOD","name":"HH-GO8230","vin":"WME4513341K416327"},{"address":"Winterhuder Weg 74, 22085 Hamburg","coordinates":[10.02298,53.57392,0],"engineType":"CE","exterior":"GOOD","fuel":100,"interior":"GOOD","name":"HH-GO8231","vin":"WME4513341K415606"},{"address":"Geroweg 22, 22453 Hamburg","coordinates":[9.95546,53.63692,0],"engineType":"CE","exterior":"GOOD","fuel":48,"interior":"GOOD","name":"HH-GO8232","vin":"WME4513341K416319"},{"address":"Dietzweg 1, 22119 Hamburg","coordinates":[10.10915,53.55954,0],"engineType":"CE","exterior":"GOOD","fuel":42,"interior":"GOOD","name":"HH-GO8482","vin":"WME4513341K415389"},{"address":"Maimoorweg 5, 22179 Hamburg","coordinates":[10.07165,53.60574,0],"engineType":"CE","exterior":"GOOD","fuel":57,"interior":"GOOD","name":"HH-GO8234","vin":"WME4513341K415612"},{"address":"Lohkoppel 7, 22179 Hamburg","coordinates":[10.07978,53.61003,0],"engineType":"CE","exterior":"UNACCEPTABLE","fuel":69,"interior":"UNACCEPTABLE","name":"HH-GO8235","vin":"WME4513341K416315"},{"address":"Saseler Chaussee 88, 22391 Hamburg","coordinates":[10.09886,53.6431,0],"engineType":"CE","exterior":"GOOD","fuel":51,"interior":"GOOD","name":"HH-GO8237","vin":"WME4513341K415396"},{"address":"Johannisbollwerk 6 - 19, 20459 Hamburg (Umkreis 300m)","coordinates":[9.97496,53.54474,0],"engineType":"CE","exterior":"GOOD","fuel":36,"interior":"GOOD","name":"HH-GO8238","vin":"WME4513341K415624"},{"address":"Johannes-Brahms-Platz 7 - 11, 20355 Hamburg (Umkreis 100m)","coordinates":[9.98003,53.55507,0],"engineType":"CE","exterior":"GOOD","fuel":100,"interior":"GOOD","name":"HH-GO8239","vin":"WME4513341K416309"},{"address":"Beim Rauhen Hause 86, 22111 Hamburg","coordinates":[10.0778,53.55177,0],"engineType":"CE","exterior":"GOOD","fuel":100,"interior":"GOOD","name":"HH-GO8240","vin":"WME4513341K415404"},{"address":"Tegelweg 77, 22159 Hamburg","coordinates":[10.10726,53.59823,0],"engineType":"CE","exterior":"GOOD","fuel":60,"interior":"GOOD","name":"HH-GO8241","vin":"WME4513341K415631"},{"address":"Försterweg 61, 22525 Hamburg","coordinates":[9.92677,53.58027,0],"engineType":"CE","exterior":"GOOD","fuel":78,"interior":"GOOD","name":"HH-GO8242","vin":"WME4513341K416303"},{"address":"Maurienstraße 15, 22305 Hamburg","coordinates":[10.04546,53.58476,0],"engineType":"CE","exterior":"GOOD","fuel":87,"interior":"GOOD","name":"HH-GO8246","vin":"WME4513341K416284"},{"address":"Meurerweg 1 - 5, 22111 Hamburg (Umkreis 300m)","coordinates":[10.08772,53.55436,0],"engineType":"CE","exterior":"GOOD","fuel":30,"interior":"UNACCEPTABLE","name":"HH-GO8248","vin":"WME4513341K416279"},{"address":"Lämmersieth 21, 22305 Hamburg","coordinates":[10.05155,53.58432,0],"engineType":"CE","exterior":"GOOD","fuel":42,"interior":"GOOD","name":"HH-GO8250","vin":"WME4513341K416356"},{"address":"Dreistücken 1 - 11, 22297 Hamburg (Umkreis 300m)","coordinates":[10.00326,53.60313,0],"engineType":"CE","exterior":"GOOD","fuel":66,"interior":"GOOD","name":"HH-GO8251","vin":"WME4513341K415663"},{"address":"Tegelweg 73, 22159 Hamburg","coordinates":[10.10724,53.5978,0],"engineType":"CE","exterior":"UNACCEPTABLE","fuel":100,"interior":"UNACCEPTABLE","name":"HH-GO8252","vin":"WME4513341K415681"},{"address":"Kohlentwiete 18, 22761 Hamburg","coordinates":[9.93091,53.56185,0],"engineType":"CE","exterior":"GOOD","fuel":100,"interior":"GOOD","name":"HH-GO8254","vin":"WME4513341K415921"},{"address":"Am Wasserturm 12, 22041 Hamburg","coordinates":[10.10475,53.577,0],"engineType":"CE","exterior":"GOOD","fuel":100,"interior":"GOOD","name":"HH-GO8255","vin":"WME4513341K415707"},{"address":"Smidtstraße 3, 20535 Hamburg","coordinates":[10.06204,53.5625,0],"engineType":"CE","exterior":"GOOD","fuel":84,"interior":"GOOD","name":"HH-GO8256","vin":"WME4513341K416248"},{"address":"Struckholt 15, 22337 Hamburg","coordinates":[10.03031,53.62751,0],"engineType":"CE","exterior":"GOOD","fuel":42,"interior":"GOOD","name":"HH-GO8257","vin":"WME4513341K415905"},{"address":"Hildesheimer Stieg 5, 22459 Hamburg","coordinates":[9.94637,53.6306,0],"engineType":"CE","exterior":"GOOD","fuel":93,"interior":"GOOD","name":"HH-GO8258","vin":"WME4513341K415718"},{"address":"Paul-Nevermann-Platz 15, 22765 Hamburg","coordinates":[9.93616,53.55211,0],"engineType":"CE","exterior":"GOOD","fuel":100,"interior":"GOOD","name":"HH-GO8259","vin":"WME4513341K416243"},{"address":"Marienthaler Straße 185, 20535 Hamburg","coordinates":[10.06042,53.56508,0],"engineType":"CE","exterior":"UNACCEPTABLE","fuel":57,"interior":"UNACCEPTABLE","name":"HH-GO8260","vin":"WME4513341K415898"},{"address":"Rehmkoppel 5, 22391 Hamburg","coordinates":[10.08352,53.64198,0],"engineType":"CE","exterior":"GOOD","fuel":100,"interior":"GOOD","name":"HH-GO8262","vin":"WME4513341K415892"},{"address":"Winterlingstieg 11, 22297 Hamburg","coordinates":[10.01447,53.60953,0],"engineType":"CE","exterior":"GOOD","fuel":36,"interior":"GOOD","name":"HH-GO8263","vin":"WME4513341K416224"},{"address":"Alsterberg 22, 22335 Hamburg","coordinates":[10.01283,53.61893,0],"engineType":"CE","exterior":"GOOD","fuel":54,"interior":"GOOD","name":"HH-GO8271","vin":"WME4513341K416187"},{"address":"Quarzweg 4, 22395 Hamburg","coordinates":[10.09582,53.65847,0],"engineType":"CE","exterior":"UNACCEPTABLE","fuel":18,"interior":"UNACCEPTABLE","name":"HH-GO8275","vin":"WME4513341K415776"},{"address":"Am Dalmannkai 1, 20457 Hamburg","coordinates":[9.9953,53.54157,0],"engineType":"CE","exterior":"GOOD","fuel":33,"interior":"UNACCEPTABLE","name":"HH-GO8276","vin":"WME4513341K416208"},{"address":"Johnsallee 22, 20148 Hamburg","coordinates":[9.99332,53.5666,0],"engineType":"CE","exterior":"GOOD","fuel":63,"interior":"GOOD","name":"HH-GO8280","vin":"WME4513341K415821"},{"address":"Schiffbeker Höhe 8, 22119 Hamburg","coordinates":[10.10838,53.54717,0],"engineType":"CE","exterior":"UNACCEPTABLE","fuel":72,"interior":"UNACCEPTABLE","name":"HH-GO8281","vin":"WME4513341K415800"},{"address":"Parkhaus Bleichenhof, Parkdeck R","coordinates":[9.98673,53.55201,0],"engineType":"CE","exterior":"GOOD","fuel":63,"interior":"GOOD","name":"HH-GO8283","vin":"WME4513341K416159"},{"address":"Parkplatz Studio Hamburg","coordinates":[10.12585,53.58416,0],"engineType":"CE","exterior":"GOOD","fuel":51,"interior":"GOOD","name":"HH-GO8284","vin":"WME4513341K416153"},{"address":"Kleine Reichenstraße 20, 20457 Hamburg","coordinates":[9.99737,53.54843,0],"engineType":"CE","exterior":"GOOD","fuel":54,"interior":"UNACCEPTABLE","name":"HH-GO8286","vin":"WME4513341K416129"},{"address":"Baron-Voght-Straße 4, 22609 Hamburg","coordinates":[9.86437,53.54863,0],"engineType":"CE","exterior":"UNACCEPTABLE","fuel":78,"interior":"UNACCEPTABLE","name":"HH-GO8287","vin":"WME4513341K415807"},{"address":"Dammtorstraße 1, 20354 Hamburg","coordinates":[9.98781,53.55623,0],"engineType":"CE","exterior":"GOOD","fuel":54,"interior":"GOOD","name":"HH-GO8288","vin":"WME4513341K416121"},{"address":"Brachetweg 1 - 15, 22179 Hamburg (Umkreis 100m)","coordinates":[10.07605,53.60707,0],"engineType":"CE","exterior":"GOOD","fuel":100,"interior":"UNACCEPTABLE","name":"HH-GO8289","vin":"WME4513341K416401"},{"address":"Nordmarkstraße 13, 22047 Hamburg","coordinates":[10.11073,53.58328,0],"engineType":"CE","exterior":"GOOD","fuel":100,"interior":"UNACCEPTABLE","name":"HH-GO8290","vin":"WME4513341K416099"},{"address":"Neuer Jungfernstieg 7 - 15, 20354 Hamburg (Umkreis 100m)","coordinates":[9.99193,53.55559,0],"engineType":"CE","exterior":"UNACCEPTABLE","fuel":75,"interior":"UNACCEPTABLE","name":"HH-GO8291","vin":"WME4513341K416418"},{"address":"Tesdorpfstraße 11 - 18, 20148 Hamburg (Umkreis 100m)","coordinates":[9.9932,53.56409,0],"engineType":"CE","exterior":"GOOD","fuel":100,"interior":"GOOD","name":"HH-GO8292","vin":"WME4513341K416090"},{"address":"Parkplatz Shell-Station, Winterhuder Weg 72, 22085 Hamburg","coordinates":[10.0234,53.57404,0],"engineType":"CE","exterior":"GOOD","fuel":100,"interior":"GOOD","name":"HH-GO8294","vin":"WME4513341K416082"},{"address":"Theodor-Schäfer-Damm, 22527 Hamburg","coordinates":[9.92397,53.59872,0],"engineType":"CE","exterior":"UNACCEPTABLE","fuel":75,"interior":"UNACCEPTABLE","name":"HH-GO8295","vin":"WME4513341K416067"},{"address":"Borstelmannsweg 38 - 68, 20537 Hamburg (Umkreis 100m)","coordinates":[10.05451,53.55217,0],"engineType":"CE","exterior":"GOOD","fuel":75,"interior":"GOOD","name":"HH-GO8298","vin":"WME4513341K416021"},{"address":"Parkplatz Studio Hamburg","coordinates":[10.12585,53.58416,0],"engineType":"CE","exterior":"GOOD","fuel":51,"interior":"GOOD","name":"HH-GO8299","vin":"WME4513341K416992"},{"address":"Ring 2, 22043 Hamburg","coordinates":[10.07725,53.56551,0],"engineType":"CE","exterior":"GOOD","fuel":100,"interior":"GOOD","name":"HH-GO8553","vin":"WME4513341K417059"},{"address":"Grosse Elbstraße 154, 22767 Hamburg","coordinates":[9.94316,53.54445,0],"engineType":"CE","exterior":"UNACCEPTABLE","fuel":100,"interior":"UNACCEPTABLE","name":"HH-GO8302","vin":"WME4513341K416008"},{"address":"Wolffstraße 6, 22525 Hamburg","coordinates":[9.9345,53.57902,0],"engineType":"CE","exterior":"GOOD","fuel":33,"interior":"UNACCEPTABLE","name":"HH-GO8320","vin":"WME4513341K417079"},{"address":"Überseering 45, 22297 Hamburg","coordinates":[10.01755,53.60167,0],"engineType":"CE","exterior":"GOOD","fuel":57,"interior":"GOOD","name":"HH-GO8304","vin":"WME4513341K415999"},{"address":"Ulmenliet 18, 21033 Hamburg","coordinates":[10.20163,53.49358,0],"engineType":"CE","exterior":"GOOD","fuel":66,"interior":"GOOD","name":"HH-GO8305","vin":"WME4513341K417170"},{"address":"Am Kaiserkai 48, 20457 Hamburg","coordinates":[9.98745,53.54152,0],"engineType":"CE","exterior":"GOOD","fuel":42,"interior":"GOOD","name":"HH-GO8306","vin":"WME4513341K415991"},{"address":"Hochrad 40, 22605 Hamburg","coordinates":[9.87166,53.5554,0],"engineType":"CE","exterior":"GOOD","fuel":21,"interior":"GOOD","name":"HH-GO8307","vin":"WME4513341K417203"},{"address":"Alsterdorfer Damm 17, 22297 Hamburg","coordinates":[10.0025,53.61074,0],"engineType":"CE","exterior":"GOOD","fuel":87,"interior":"GOOD","name":"HH-GO8309","vin":"WME4513341K417441"},{"address":"Kapstadtring 5, 22297 Hamburg","coordinates":[10.02749,53.60327,0],"engineType":"CE","exterior":"GOOD","fuel":69,"interior":"GOOD","name":"HH-GO8311","vin":"WME4513341K417475"},{"address":"Kajen 14, 20459 Hamburg","coordinates":[9.98475,53.54514,0],"engineType":"CE","exterior":"GOOD","fuel":100,"interior":"GOOD","name":"HH-GO8312","vin":"WME4513341K415966"},{"address":"Überseering 37, 22297 Hamburg","coordinates":[10.0177,53.60348,0],"engineType":"CE","exterior":"GOOD","fuel":100,"interior":"GOOD","name":"HH-GO8313","vin":"WME4513341K417580"},{"address":"Goldbekufer 32, 22303 Hamburg","coordinates":[10.01736,53.58751,0],"engineType":"CE","exterior":"GOOD","fuel":60,"interior":"GOOD","name":"HH-GO8314","vin":"WME4513341K415951"},{"address":"Perthesweg 32, 20535 Hamburg","coordinates":[10.06354,53.5622,0],"engineType":"CE","exterior":"GOOD","fuel":100,"interior":"GOOD","name":"HH-GO8489","vin":"WME4513341K563742"},{"address":"Alter Teichweg 12, 22081 Hamburg","coordinates":[10.04825,53.58261,0],"engineType":"CE","exterior":"GOOD","fuel":100,"interior":"GOOD","name":"HH-GO8490","vin":"WME4513341K561567"},{"address":"Moosrosenweg 14, 22177 Hamburg","coordinates":[10.06841,53.60315,0],"engineType":"CE","exterior":"GOOD","fuel":78,"interior":"GOOD","name":"HH-GO8491","vin":"WME4513341K564022"},{"address":"Lagerstraße 20, 20357 Hamburg","coordinates":[9.971,53.56255,0],"engineType":"CE","exterior":"GOOD","fuel":96,"interior":"GOOD","name":"HH-GO8492","vin":"WME4513341K564339"},{"address":"Flughafen HH (Mietwagenzentrum Ebene 1 oder 5)","coordinates":[10.00708,53.62914,0],"engineType":"CE","exterior":"GOOD","fuel":75,"interior":"GOOD","name":"HH-GO8493","vin":"WME4513341K564409"},{"address":"Quellenweg 18, 20535 Hamburg","coordinates":[10.06161,53.56217,0],"engineType":"CE","exterior":"GOOD","fuel":96,"interior":"GOOD","name":"HH-GO8494","vin":"WME4513341K564450"},{"address":"Nesselstraße 10, 22335 Hamburg","coordinates":[10.01705,53.62061,0],"engineType":"CE","exterior":"UNACCEPTABLE","fuel":39,"interior":"GOOD","name":"HH-GO8495","vin":"WME4513341K564483"},{"address":"Schnackenburgallee 46, 22525 Hamburg","coordinates":[9.91838,53.57916,0],"engineType":"CE","exterior":"GOOD","fuel":96,"interior":"GOOD","name":"HH-GO8496","vin":"WME4513341K564550"},{"address":"Nesselstraße 13, 22335 Hamburg","coordinates":[10.0176,53.62044,0],"engineType":"CE","exterior":"GOOD","fuel":63,"interior":"GOOD","name":"HH-GO8499","vin":"WME4513341K561631"},{"address":"Teilfeld 5, 20459 Hamburg","coordinates":[9.98216,53.54821,0],"engineType":"CE","exterior":"GOOD","fuel":81,"interior":"GOOD","name":"HH-GO8501","vin":"WME4513341K561113"},{"address":"Lohkoppelweg 12, 22529 Hamburg","coordinates":[9.95809,53.59226,0],"engineType":"CE","exterior":"GOOD","fuel":36,"interior":"GOOD","name":"HH-GO8502","vin":"WME4513341K561124"},{"address":"Hammer Straße 27, 22041 Hamburg","coordinates":[10.06281,53.56812,0],"engineType":"CE","exterior":"GOOD","fuel":33,"interior":"UNACCEPTABLE","name":"HH-GO8503","vin":"WME4513341K561040"},{"address":"Grosse Bleichen 35, 20354 Hamburg","coordinates":[9.98754,53.55229,0],"engineType":"CE","exterior":"UNACCEPTABLE","fuel":36,"interior":"UNACCEPTABLE","name":"HH-GO8591","vin":"WME4513341K560773"},{"address":"Nedderfeld 98, 22529 Hamburg","coordinates":[9.97762,53.60067,0],"engineType":"CE","exterior":"GOOD","fuel":45,"interior":"GOOD","name":"HH-GO8508","vin":"WME4513341K562917"},{"address":"Goldkoppel 18, 22119 Hamburg","coordinates":[10.11185,53.54814,0],"engineType":"CE","exterior":"GOOD","fuel":87,"interior":"GOOD","name":"HH-GO8509","vin":"WME4513341K565374"},{"address":"Rödingsmarkt 29 - 35, 20459 Hamburg (Umkreis 100m)","coordinates":[9.98556,53.54665,0],"engineType":"CE","exterior":"GOOD","fuel":93,"interior":"GOOD","name":"HH-GO8510","vin":"WME4513341K565909"},{"address":"Finkenau 34, 22081 Hamburg","coordinates":[10.03206,53.56871,0],"engineType":"CE","exterior":"GOOD","fuel":33,"interior":"GOOD","name":"HH-GO8511","vin":"WME4513341K562173"},{"address":"Parkplatz Shell-Station, Winterhuder Weg 72, 22085 Hamburg","coordinates":[10.0234,53.57404,0],"engineType":"CE","exterior":"GOOD","fuel":48,"interior":"GOOD","name":"HH-GO8512","vin":"WME4513341K563879"},{"address":"Heubergredder 26, 22297 Hamburg","coordinates":[10.00924,53.6081,0],"engineType":"CE","exterior":"GOOD","fuel":30,"interior":"GOOD","name":"HH-GO8321","vin":"WME4513341K555958"},{"address":"Dobbelersweg 2, 20537 Hamburg","coordinates":[10.05336,53.55327,0],"engineType":"CE","exterior":"GOOD","fuel":100,"interior":"GOOD","name":"HH-GO8322","vin":"WME4513341K556161"},{"address":"Borsteler Chaussee 93, 22453 Hamburg","coordinates":[9.98048,53.60643,0],"engineType":"CE","exterior":"GOOD","fuel":81,"interior":"GOOD","name":"HH-GO8323","vin":"WME4513341K564280"},{"address":"Sophienterrasse 19, 20149 Hamburg","coordinates":[9.99427,53.57638,0],"engineType":"CE","exterior":"GOOD","fuel":69,"interior":"GOOD","name":"HH-GO8328","vin":"WME4513341K564379"},{"address":"Altstädter Straße 13, 20095 Hamburg","coordinates":[10.00293,53.54941,0],"engineType":"CE","exterior":"GOOD","fuel":100,"interior":"GOOD","name":"HH-GO8334","vin":"WME4513341K564570"},{"address":"Stoltenbrücke 2, 22043 Hamburg","coordinates":[10.0944,53.56412,0],"engineType":"CE","exterior":"GOOD","fuel":100,"interior":"GOOD","name":"HH-GO8335","vin":"WME4513341K564648"},{"address":"Eckerkoppel 67, 22159 Hamburg","coordinates":[10.10934,53.59917,0],"engineType":"CE","exterior":"UNACCEPTABLE","fuel":30,"interior":"UNACCEPTABLE","name":"HH-GO8339","vin":"WME4513341K564719"},{"address":"Steindamm 29, 20099 Hamburg","coordinates":[10.01286,53.55394,0],"engineType":"CE","exterior":"GOOD","fuel":21,"interior":"GOOD","name":"HH-GO8340","vin":"WME4513341K564725"},{"address":"Ernst-Mantius-Straße 28, 21029 Hamburg","coordinates":[10.21426,53.49061,0],"engineType":"CE","exterior":"GOOD","fuel":18,"interior":"GOOD","name":"HH-GO8342","vin":"WME4513341K564770"},{"address":"Holstenhofweg 71 - 83, 22043 Hamburg (Umkreis 300m)","coordinates":[10.10562,53.56991,0],"engineType":"CE","exterior":"GOOD","fuel":75,"interior":"GOOD","name":"HH-GO8344","vin":"WME4513341K564832"},{"address":"Domstraße 19, 20095 Hamburg","coordinates":[9.9944,53.54788,0],"engineType":"CE","exterior":"GOOD","fuel":72,"interior":"GOOD","name":"HH-GO8345","vin":"WME4513341K564847"},{"address":"Tilsiter Straße 106, 22047 Hamburg","coordinates":[10.09077,53.59205,0],"engineType":"CE","exterior":"GOOD","fuel":42,"interior":"GOOD","name":"HH-GO8347","vin":"WME4513341K564888"},{"address":"Hansehof","coordinates":[10.12173,53.57905,0],"engineType":"CE","exterior":"GOOD","fuel":21,"interior":"GOOD","name":"HH-GO8348","vin":"WME4513341K564899"},{"address":"Schopenstehl 13, 20095 Hamburg","coordinates":[9.99811,53.54874,0],"engineType":"CE","exterior":"GOOD","fuel":100,"interior":"GOOD","name":"HH-GO8350","vin":"WME4513341K564931"},{"address":"Friedrichstraße 20, 20359 Hamburg","coordinates":[9.9614,53.54855,0],"engineType":"CE","exterior":"GOOD","fuel":72,"interior":"GOOD","name":"HH-GO8351","vin":"WME4513341K564939"},{"address":"Walddörferstraße 355, 22047 Hamburg","coordinates":[10.10618,53.58805,0],"engineType":"CE","exterior":"GOOD","fuel":24,"interior":"GOOD","name":"HH-GO8352","vin":"WME4513341K564945"},{"address":"Budapester Straße 52, 20359 Hamburg","coordinates":[9.96421,53.55623,0],"engineType":"CE","exterior":"GOOD","fuel":69,"interior":"UNACCEPTABLE","name":"HH-GO8353","vin":"WME4513341K564976"},{"address":"Berner Chaussee 12, 22175 Hamburg","coordinates":[10.08199,53.61856,0],"engineType":"CE","exterior":"GOOD","fuel":45,"interior":"UNACCEPTABLE","name":"HH-GO8354","vin":"WME4513341K565026"},{"address":"Sander Straße 3, 21029 Hamburg","coordinates":[10.21597,53.49514,0],"engineType":"CE","exterior":"GOOD","fuel":18,"interior":"GOOD","name":"HH-GO8355","vin":"WME4513341K565043"},{"address":"Studioweg 3, 22045 Hamburg","coordinates":[10.12356,53.58583,0],"engineType":"CE","exterior":"GOOD","fuel":45,"interior":"GOOD","name":"HH-GO8357","vin":"WME4513341K565065"},{"address":"Brödermannsweg 71, 22453 Hamburg","coordinates":[9.97148,53.60579,0],"engineType":"CE","exterior":"GOOD","fuel":33,"interior":"GOOD","name":"HH-GO8359","vin":"WME4513341K565111"},{"address":"Rahlau 38, 22045 Hamburg","coordinates":[10.1162,53.58008,0],"engineType":"CE","exterior":"GOOD","fuel":36,"interior":"GOOD","name":"HH-GO8360","vin":"WME4513341K565140"},{"address":"Braunlager Weg 11, 22459 Hamburg","coordinates":[9.94165,53.6305,0],"engineType":"CE","exterior":"GOOD","fuel":100,"interior":"GOOD","name":"HH-GO8361","vin":"WME4513341K565155"},{"address":"Brüdtweg 12, 21033 Hamburg","coordinates":[10.20377,53.49364,0],"engineType":"CE","exterior":"UNACCEPTABLE","fuel":78,"interior":"GOOD","name":"HH-GO8362","vin":"WME4513341K565183"},{"address":"Lüttmelland 14, 22393 Hamburg","coordinates":[10.10176,53.64969,0],"engineType":"CE","exterior":"UNACCEPTABLE","fuel":100,"interior":"UNACCEPTABLE","name":"HH-GO8364","vin":"WME4513341K565330"},{"address":"Lutherhöhe 3, 22761 Hamburg","coordinates":[9.90368,53.56922,0],"engineType":"CE","exterior":"UNACCEPTABLE","fuel":48,"interior":"GOOD","name":"HH-GO8365","vin":"WME4513341K565363"},{"address":"Tessenowweg 5, 22297 Hamburg","coordinates":[10.03023,53.60763,0],"engineType":"CE","exterior":"GOOD","fuel":66,"interior":"GOOD","name":"HH-GO8366","vin":"WME4513341K565402"},{"address":"Oderfelder Straße 10, 20149 Hamburg","coordinates":[9.98858,53.58278,0],"engineType":"CE","exterior":"GOOD","fuel":100,"interior":"GOOD","name":"HH-GO8367","vin":"WME4513341K565457"},{"address":"Garstedter Weg 153, 22455 Hamburg","coordinates":[9.96442,53.63275,0],"engineType":"CE","exterior":"UNACCEPTABLE","fuel":87,"interior":"UNACCEPTABLE","name":"HH-GO8368","vin":"WME4513341K565463"},{"address":"Brunnenkoppel 8, 22041 Hamburg","coordinates":[10.10754,53.57849,0],"engineType":"CE","exterior":"UNACCEPTABLE","fuel":60,"interior":"GOOD","name":"HH-GO8369","vin":"WME4513341K565488"},{"address":"Dorothea-Kasten-Straße 5, 22297 Hamburg","coordinates":[10.02232,53.61339,0],"engineType":"CE","exterior":"UNACCEPTABLE","fuel":60,"interior":"UNACCEPTABLE","name":"HH-GO8370","vin":"WME4513341K565500"},{"address":"Grosse Brunnenstraße 113, 22763 Hamburg","coordinates":[9.9222,53.55381,0],"engineType":"CE","exterior":"GOOD","fuel":75,"interior":"GOOD","name":"HH-GO8371","vin":"WME4513341K565534"},{"address":"Rondenbarg 27, 22525 Hamburg","coordinates":[9.92133,53.57787,0],"engineType":"CE","exterior":"GOOD","fuel":100,"interior":"GOOD","name":"HH-GO8372","vin":"WME4513341K565537"},{"address":"Kaptaubentwiete 19, 22119 Hamburg","coordinates":[10.10635,53.54872,0],"engineType":"CE","exterior":"GOOD","fuel":48,"interior":"GOOD","name":"HH-GO8374","vin":"WME4513341K565636"},{"address":"Kurvenstraße 24, 22043 Hamburg","coordinates":[10.07488,53.56628,0],"engineType":"CE","exterior":"UNACCEPTABLE","fuel":45,"interior":"UNACCEPTABLE","name":"HH-GO8375","vin":"WME4513341K565693"},{"address":"Kedenburgstraße 29, 22041 Hamburg","coordinates":[10.08645,53.57876,0],"engineType":"CE","exterior":"GOOD","fuel":51,"interior":"GOOD","name":"HH-GO8377","vin":"WME4513341K565714"},{"address":"Neuer Jungfernstieg 18, 20354 Hamburg","coordinates":[9.99248,53.55636,0],"engineType":"CE","exterior":"GOOD","fuel":42,"interior":"UNACCEPTABLE","name":"HH-GO8379","vin":"WME4513341K565753"},{"address":"Billstedter Hauptstraße 9, 22111 Hamburg","coordinates":[10.09745,53.54194,0],"engineType":"CE","exterior":"UNACCEPTABLE","fuel":54,"interior":"UNACCEPTABLE","name":"HH-GO8380","vin":"WME4513341K565757"},{"address":"Nordkanalstraße 49, 20097 Hamburg","coordinates":[10.02204,53.55022,0],"engineType":"CE","exterior":"GOOD","fuel":57,"interior":"UNACCEPTABLE","name":"HH-GO8385","vin":"WME4513341K565800"},{"address":"Hebebrandstraße 6, 22297 Hamburg","coordinates":[10.03663,53.60798,0],"engineType":"CE","exterior":"GOOD","fuel":100,"interior":"GOOD","name":"HH-GO8386","vin":"WME4513341K565829"},{"address":"Sibeliusstraße 2, 22761 Hamburg","coordinates":[9.90558,53.56184,0],"engineType":"CE","exterior":"GOOD","fuel":27,"interior":"GOOD","name":"HH-GO8387","vin":"WME4513341K565847"},{"address":"Ring 2, 22043 Hamburg","coordinates":[10.07838,53.56388,0],"engineType":"CE","exterior":"GOOD","fuel":51,"interior":"GOOD","name":"HH-GO8390","vin":"WME4513341K565906"},{"address":"Am Neumarkt 33, 22041 Hamburg","coordinates":[10.08928,53.57518,0],"engineType":"CE","exterior":"UNACCEPTABLE","fuel":27,"interior":"UNACCEPTABLE","name":"HH-GO8392","vin":"WME4513341K565927"},{"address":"Mattentwiete 4, 20457 Hamburg","coordinates":[9.98922,53.5456,0],"engineType":"CE","exterior":"GOOD","fuel":60,"interior":"GOOD","name":"HH-GO8393","vin":"WME4513341K565939"},{"address":"Heckscherstraße 5, 20253 Hamburg","coordinates":[9.96214,53.58042,0],"engineType":"CE","exterior":"GOOD","fuel":57,"interior":"GOOD","name":"HH-GO8395","vin":"WME4513341K565994"},{"address":"Rübenkamp 339, 22337 Hamburg","coordinates":[10.03248,53.61494,0],"engineType":"CE","exterior":"GOOD","fuel":100,"interior":"GOOD","name":"HH-GO8397","vin":"WME4513341K566012"},{"address":"Am Stadtrand 24, 22047 Hamburg","coordinates":[10.10004,53.5868,0],"engineType":"CE","exterior":"GOOD","fuel":66,"interior":"UNACCEPTABLE","name":"HH-GO8398","vin":"WME4513341K566041"},{"address":"Am Pfeilshof 4, 22393 Hamburg","coordinates":[10.09763,53.64134,0],"engineType":"CE","exterior":"GOOD","fuel":87,"interior":"GOOD","name":"HH-GO8401","vin":"WME4513341K566134"},{"address":"Rathenaustraße 13 - 16, 22297 Hamburg (Umkreis 300m)","coordinates":[10.00278,53.6111,0],"engineType":"CE","exterior":"GOOD","fuel":90,"interior":"GOOD","name":"HH-GO8404","vin":"WME4513341K566165"},{"address":"Culinstraße 20, 22111 Hamburg","coordinates":[10.07608,53.54978,0],"engineType":"CE","exterior":"GOOD","fuel":100,"interior":"GOOD","name":"HH-GO8406","vin":"WME4513341K566209"},{"address":"Parkplatz Shell-Station, Friedrich-Ebert-Damm 171","coordinates":[10.09964,53.58957,0],"engineType":"CE","exterior":"GOOD","fuel":81,"interior":"GOOD","name":"HH-GO8408","vin":"WME4513341K566247"},{"address":"Rödingsmarkt 41, 20459 Hamburg","coordinates":[9.98524,53.54622,0],"engineType":"CE","exterior":"GOOD","fuel":42,"interior":"GOOD","name":"HH-GO8409","vin":"WME4513341K566269"},{"address":"An der Alster 12, 20099 Hamburg","coordinates":[10.01328,53.56069,0],"engineType":"CE","exterior":"GOOD","fuel":100,"interior":"UNACCEPTABLE","name":"HH-GO8410","vin":"WME4513341K566272"},{"address":"Haferweg 35, 22769 Hamburg","coordinates":[9.93777,53.57174,0],"engineType":"CE","exterior":"GOOD","fuel":39,"interior":"GOOD","name":"HH-GO8411","vin":"WME4513341K566336"},{"address":"Arminiusstraße 3, 22525 Hamburg","coordinates":[9.93511,53.58068,0],"engineType":"CE","exterior":"GOOD","fuel":33,"interior":"GOOD","name":"HH-GO8552","vin":"WME4513341K566484"},{"address":"Wendlohstraße 121, 22459 Hamburg","coordinates":[9.9412,53.62958,0],"engineType":"CE","exterior":"GOOD","fuel":69,"interior":"GOOD","name":"HH-GO8415","vin":"WME4513341K566488"},{"address":"Stresemannstraße 285, 22769 Hamburg","coordinates":[9.93282,53.56394,0],"engineType":"CE","exterior":"GOOD","fuel":36,"interior":"GOOD","name":"HH-GO8419","vin":"WME4513341K566612"},{"address":"Hans-Henny-Jahnn-Weg 19, 22085 Hamburg","coordinates":[10.01473,53.58011,0],"engineType":"CE","exterior":"GOOD","fuel":93,"interior":"GOOD","name":"HH-GO8422","vin":"WME4513341K566639"},{"address":"Warnckesweg 6, 22453 Hamburg","coordinates":[9.97324,53.61015,0],"engineType":"CE","exterior":"GOOD","fuel":100,"interior":"GOOD","name":"HH-GO8424","vin":"WME4513341K566666"},{"address":"Legienstraße 210, 22119 Hamburg (Umkreis 100m)","coordinates":[10.1061,53.55588,0],"engineType":"CE","exterior":"GOOD","fuel":100,"interior":"GOOD","name":"HH-GO8425","vin":"WME4513341K566675"},{"address":"Tennigkeitweg 9, 22391 Hamburg","coordinates":[10.09135,53.65019,0],"engineType":"CE","exterior":"GOOD","fuel":60,"interior":"GOOD","name":"HH-GO8426","vin":"WME4513341K566682"},{"address":"Ahrensburger Straße 154, 22045 Hamburg","coordinates":[10.10851,53.58213,0],"engineType":"CE","exterior":"GOOD","fuel":30,"interior":"GOOD","name":"HH-GO8427","vin":"WME4513341K566695"},{"address":"Dammtorwall 38, 20355 Hamburg","coordinates":[9.98238,53.55642,0],"engineType":"CE","exterior":"GOOD","fuel":69,"interior":"GOOD","name":"HH-GO8428","vin":"WME4513341K566698"},{"address":"Volksparkstraße 65 - 75, 22525 Hamburg (Umkreis 100m)","coordinates":[9.91946,53.5907,0],"engineType":"CE","exterior":"GOOD","fuel":100,"interior":"GOOD","name":"HH-GO8430","vin":"WME4513341K566721"},{"address":"Parkhaus Nomis Quartier, Parkdeck 3","coordinates":[9.96688,53.55078,0],"engineType":"CE","exterior":"GOOD","fuel":100,"interior":"GOOD","name":"HH-GO8478","vin":"WME4513341K566742"},{"address":"Ring 1, 20355 Hamburg","coordinates":[9.97448,53.55115,0],"engineType":"CE","exterior":"GOOD","fuel":69,"interior":"GOOD","name":"HH-GO8432","vin":"WME4513341K566764"},{"address":"Grosse Elbstraße 266, 22767 Hamburg","coordinates":[9.93204,53.54473,0],"engineType":"CE","exterior":"UNACCEPTABLE","fuel":100,"interior":"UNACCEPTABLE","name":"HH-GO8433","vin":"WME4513341K566807"},{"address":"Papenkamp 43, 22607 Hamburg","coordinates":[9.8658,53.55934,0],"engineType":"CE","exterior":"GOOD","fuel":48,"interior":"GOOD","name":"HH-GO8434","vin":"WME4513341K566858"},{"address":"Lamp'lweg 3, 22767 Hamburg","coordinates":[9.93846,53.55297,0],"engineType":"CE","exterior":"GOOD","fuel":84,"interior":"GOOD","name":"HH-GO8436","vin":"WME4513341K566878"},{"address":"Holzmühlenstieg 9, 22041 Hamburg","coordinates":[10.08282,53.57761,0],"engineType":"CE","exterior":"GOOD","fuel":90,"interior":"GOOD","name":"HH-GO8438","vin":"WME4513341K566898"},{"address":"Beim Opferstein 13, 22529 Hamburg","coordinates":[9.95165,53.60424,0],"engineType":"CE","exterior":"GOOD","fuel":54,"interior":"GOOD","name":"HH-GO8439","vin":"WME4513341K566905"},{"address":"Krochmannstraße 68, 22297 Hamburg","coordinates":[10.00451,53.60216,0],"engineType":"CE","exterior":"UNACCEPTABLE","fuel":87,"interior":"UNACCEPTABLE","name":"HH-GO8440","vin":"WME4513341K566921"},{"address":"Poelsweg 5, 20535 Hamburg","coordinates":[10.06266,53.5612,0],"engineType":"CE","exterior":"GOOD","fuel":54,"interior":"GOOD","name":"HH-GO8443","vin":"WME4513341K566972"},{"address":"Scheteligsweg 5, 22111 Hamburg","coordinates":[10.08246,53.55112,0],"engineType":"CE","exterior":"GOOD","fuel":63,"interior":"GOOD","name":"HH-GO8446","vin":"WME4513341K567002"},{"address":"Elsässer Straße 34, 22049 Hamburg","coordinates":[10.06361,53.58063,0],"engineType":"CE","exterior":"UNACCEPTABLE","fuel":60,"interior":"UNACCEPTABLE","name":"HH-GO8448","vin":"WME4513341K567075"},{"address":"Hein-Hoyer-Straße 15, 20359 Hamburg","coordinates":[9.96217,53.55072,0],"engineType":"CE","exterior":"GOOD","fuel":96,"interior":"GOOD","name":"HH-GO8479","vin":"WME4513341K567083"},{"address":"Hopfenstraße 28, 20359 Hamburg","coordinates":[9.96359,53.54805,0],"engineType":"CE","exterior":"UNACCEPTABLE","fuel":78,"interior":"UNACCEPTABLE","name":"HH-GO8452","vin":"WME4513341K567223"},{"address":"Buttstraße 3, 22767 Hamburg","coordinates":[9.95095,53.5455,0],"engineType":"CE","exterior":"UNACCEPTABLE","fuel":33,"interior":"GOOD","name":"HH-GO8453","vin":"WME4513341K567241"},{"address":"Ring 2, 22043 Hamburg","coordinates":[10.07716,53.56565,0],"engineType":"CE","exterior":"GOOD","fuel":90,"interior":"GOOD","name":"HH-GO8454","vin":"WME4513341K567259"},{"address":"Alsterdorfer Straße 489, 22337 Hamburg","coordinates":[10.02523,53.61657,0],"engineType":"CE","exterior":"GOOD","fuel":96,"interior":"GOOD","name":"HH-GO8456","vin":"WME4513341K567283"},{"address":"Susettestraße 2, 22763 Hamburg","coordinates":[9.92456,53.54651,0],"engineType":"CE","exterior":"GOOD","fuel":100,"interior":"GOOD","name":"HH-GO8458","vin":"WME4513341K567318"},{"address":"Poggenmühle 1, 20457 Hamburg (Umkreis 100m)","coordinates":[10.00264,53.54583,0],"engineType":"CE","exterior":"GOOD","fuel":100,"interior":"GOOD","name":"HH-GO8459","vin":"WME4513341K567330"},{"address":"Flughafen HH (Mietwagenzentrum Ebene 1 oder 5)","coordinates":[10.00708,53.62914,0],"engineType":"CE","exterior":"GOOD","fuel":54,"interior":"GOOD","name":"HH-GO8460","vin":"WME4513341K567338"},{"address":"Rübenkamp 357, 22337 Hamburg","coordinates":[10.0332,53.61616,0],"engineType":"CE","exterior":"GOOD","fuel":63,"interior":"GOOD","name":"HH-GO8461","vin":"WME4513341K567372"},{"address":"Nesselstraße 28, 22335 Hamburg","coordinates":[10.01893,53.61883,0],"engineType":"CE","exterior":"GOOD","fuel":66,"interior":"GOOD","name":"HH-GO8462","vin":"WME4513341K567378"},{"address":"Dammwiesenstraße 11, 22045 Hamburg","coordinates":[10.11187,53.58159,0],"engineType":"CE","exterior":"GOOD","fuel":100,"interior":"UNACCEPTABLE","name":"HH-GO8463","vin":"WME4513341K567384"},{"address":"Hammer Weg 26 - 36, 20537 Hamburg (Umkreis 100m)","coordinates":[10.04726,53.55342,0],"engineType":"CE","exterior":"GOOD","fuel":45,"interior":"GOOD","name":"HH-GO8550","vin":"WME4513341K567450"},{"address":"Ring 2, 22111 Hamburg","coordinates":[10.08183,53.55784,0],"engineType":"CE","exterior":"GOOD","fuel":39,"interior":"GOOD","name":"HH-GO8483","vin":"WME4513341K567480"},{"address":"Schwarzlosestraße 2 - 18, 22041 Hamburg (Umkreis 100m)","coordinates":[10.07866,53.5801,0],"engineType":"CE","exterior":"UNACCEPTABLE","fuel":100,"interior":"UNACCEPTABLE","name":"HH-GO8469","vin":"WME4513341K567498"},{"address":"Rabenhorst 5, 22391 Hamburg","coordinates":[10.08406,53.64132,0],"engineType":"CE","exterior":"GOOD","fuel":96,"interior":"GOOD","name":"HH-GO8470","vin":"WME4513341K567510"},{"address":"Hindenburgstraße 2, 22303 Hamburg","coordinates":[10.01423,53.59376,0],"engineType":"CE","exterior":"GOOD","fuel":100,"interior":"GOOD","name":"HH-GO8513","vin":"WME4513341K561594"},{"address":"Nedderfeld 102, 22529 Hamburg","coordinates":[9.97932,53.60142,0],"engineType":"CE","exterior":"GOOD","fuel":100,"interior":"GOOD","name":"HH-GO8514","vin":"WME4513341K565414"},{"address":"Ernst-Mantius-Straße 7, 21029 Hamburg","coordinates":[10.21025,53.49065,0],"engineType":"CE","exterior":"GOOD","fuel":72,"interior":"UNACCEPTABLE","name":"HH-GO8515","vin":"WME4513341K566804"},{"address":"Am Neumarkt 40, 22041 Hamburg","coordinates":[10.09245,53.57517,0],"engineType":"CE","exterior":"GOOD","fuel":33,"interior":"GOOD","name":"HH-GO8518","vin":"WME4513341K566946"},{"address":"Grindelallee 36, 20146 Hamburg","coordinates":[9.98281,53.56562,0],"engineType":"CE","exterior":"GOOD","fuel":36,"interior":"GOOD","name":"HH-GO8521","vin":"WME4513341K565333"},{"address":"Dietzweg 2, 22119 Hamburg","coordinates":[10.10942,53.55954,0],"engineType":"CE","exterior":"GOOD","fuel":39,"interior":"GOOD","name":"HH-GO8523","vin":"WME4513341K570914"},{"address":"Alte Volksparkstraße 30, 22525 Hamburg","coordinates":[9.92434,53.59215,0],"engineType":"CE","exterior":"GOOD","fuel":39,"interior":"GOOD","name":"HH-GO8524","vin":"WME4513341K567006"},{"address":"Walddörferstraße 353, 22047 Hamburg","coordinates":[10.10597,53.58796,0],"engineType":"CE","exterior":"GOOD","fuel":33,"interior":"GOOD","name":"HH-GO8525","vin":"WME4513341K567043"},{"address":"Herderstraße 79, 22085 Hamburg","coordinates":[10.01943,53.58102,0],"engineType":"CE","exterior":"GOOD","fuel":100,"interior":"GOOD","name":"HH-GO8526","vin":"WME4513341K572126"},{"address":"Grosse Elbstraße 266, 22767 Hamburg","coordinates":[9.93196,53.54468,0],"engineType":"CE","exterior":"GOOD","fuel":48,"interior":"GOOD","name":"HH-GO8530","vin":"WME4513341K567206"},{"address":"Höperfeld 17, 21033 Hamburg","coordinates":[10.20256,53.49523,0],"engineType":"CE","exterior":"GOOD","fuel":69,"interior":"GOOD","name":"HH-GO8531","vin":"WME4513341K561020"},{"address":"Neumühlen 26 - 29, 22763 Hamburg (Umkreis 100m)","coordinates":[9.91802,53.54413,0],"engineType":"CE","exterior":"GOOD","fuel":100,"interior":"GOOD","name":"HH-GO8533","vin":"WME4513341K566950"},{"address":"Hahntrapp 2, 20457 Hamburg","coordinates":[9.99026,53.54832,0],"engineType":"CE","exterior":"GOOD","fuel":75,"interior":"GOOD","name":"HH-GO8534","vin":"WME4513341K565371"},{"address":"Bramfelder Dorfplatz 15, 22179 Hamburg","coordinates":[10.07819,53.61415,0],"engineType":"CE","exterior":"UNACCEPTABLE","fuel":39,"interior":"UNACCEPTABLE","name":"HH-GO8536","vin":"WME4513341K562145"},{"address":"Schnackenburgallee 51, 22525 Hamburg","coordinates":[9.9177,53.58099,0],"engineType":"CE","exterior":"UNACCEPTABLE","fuel":30,"interior":"UNACCEPTABLE","name":"HH-GO8537","vin":"WME4513341K564826"},{"address":"Mittelweg 136, 20148 Hamburg","coordinates":[9.99517,53.57069,0],"engineType":"CE","exterior":"GOOD","fuel":96,"interior":"GOOD","name":"HH-GO8538","vin":"WME4513341K565570"},{"address":"Parkplatz Studio Hamburg","coordinates":[10.12585,53.58416,0],"engineType":"CE","exterior":"GOOD","fuel":100,"interior":"GOOD","name":"HH-GO8539","vin":"WME4513341K567049"},{"address":"Nordmarkstraße 12, 22047 Hamburg","coordinates":[10.11074,53.58333,0],"engineType":"CE","exterior":"GOOD","fuel":45,"interior":"GOOD","name":"HH-GO8535","vin":"WME4513341K560777"},{"address":"Jarrestraße 45, 22303 Hamburg","coordinates":[10.02563,53.58514,0],"engineType":"CE","exterior":"GOOD","fuel":100,"interior":"GOOD","name":"HH-GO8546","vin":"WME4513341K560748"},{"address":"Rauchstraße 97, 22043 Hamburg","coordinates":[10.10392,53.57361,0],"engineType":"CE","exterior":"UNACCEPTABLE","fuel":69,"interior":"GOOD","name":"HH-GO8547","vin":"WME4513341K560876"},{"address":"Lokstedter Damm 50, 22453 Hamburg","coordinates":[9.9713,53.60871,0],"engineType":"CE","exterior":"GOOD","fuel":84,"interior":"GOOD","name":"HH-GO8540","vin":"WME4513341K560967"},{"address":"Lange Straße 33, 20359 Hamburg","coordinates":[9.9546,53.54701,0],"engineType":"CE","exterior":"GOOD","fuel":69,"interior":"GOOD","name":"HH-GO8545","vin":"WME4513341K565566"},{"address":"Alsterdorfer Straße 504, 22337 Hamburg","coordinates":[10.02603,53.61686,0],"engineType":"CE","exterior":"GOOD","fuel":57,"interior":"GOOD","name":"HH-GO8548","vin":"WME4513341K566569"},{"address":"Ölmühlenweg 43, 22047 Hamburg","coordinates":[10.10141,53.58364,0],"engineType":"CE","exterior":"GOOD","fuel":93,"interior":"GOOD","name":"HH-GO8542","vin":"WME4513341K567017"},{"address":"Nesselstraße 14, 22335 Hamburg","coordinates":[10.01765,53.62038,0],"engineType":"CE","exterior":"GOOD","fuel":100,"interior":"GOOD","name":"HH-GO8543","vin":"WME4513341K563380"},{"address":"Alexanderstraße 30, 20099 Hamburg","coordinates":[10.02066,53.55578,0],"engineType":"CE","exterior":"GOOD","fuel":100,"interior":"GOOD","name":"HH-GO8541","vin":"WME4513341K567035"},{"address":"Hamburger Berg 8, 20359 Hamburg","coordinates":[9.96129,53.55037,0],"engineType":"CE","exterior":"GOOD","fuel":100,"interior":"GOOD","name":"HH-GO8544","vin":"WME4513341K570923"},{"address":"Katharinenfleet 2, 20457 Hamburg","coordinates":[9.9898,53.54525,0],"engineType":"CE","exterior":"UNACCEPTABLE","fuel":54,"interior":"UNACCEPTABLE","name":"HH-GO8557","vin":"WME4513341K560740"},{"address":"Rahlau 99, 22045 Hamburg","coordinates":[10.12426,53.5839,0],"engineType":"CE","exterior":"GOOD","fuel":69,"interior":"GOOD","name":"HH-GO8587","vin":"WME4513341K560752"},{"address":"Rantzaustraße 58, 22041 Hamburg","coordinates":[10.07043,53.56942,0],"engineType":"CE","exterior":"GOOD","fuel":96,"interior":"GOOD","name":"HH-GO8558","vin":"WME4513341K560764"},{"address":"Neue Gröningerstraße 8, 20457 Hamburg","coordinates":[9.99513,53.54626,0],"engineType":"CE","exterior":"GOOD","fuel":100,"interior":"GOOD","name":"HH-GO8561","vin":"WME4513341K560790"},{"address":"Horner Weg 247, 22111 Hamburg","coordinates":[10.08016,53.55482,0],"engineType":"CE","exterior":"GOOD","fuel":57,"interior":"GOOD","name":"HH-GO8562","vin":"WME4513341K560803"},{"address":"Neumühlen 26 - 29, 22763 Hamburg (Umkreis 100m)","coordinates":[9.9181,53.54413,0],"engineType":"CE","exterior":"UNACCEPTABLE","fuel":90,"interior":"UNACCEPTABLE","name":"HH-GO8563","vin":"WME4513341K560857"},{"address":"Legienstraße 246, 22119 Hamburg","coordinates":[10.10617,53.55825,0],"engineType":"CE","exterior":"UNACCEPTABLE","fuel":30,"interior":"UNACCEPTABLE","name":"HH-GO8566","vin":"WME4513341K560919"},{"address":"Claudiusstraße 70, 22043 Hamburg","coordinates":[10.06916,53.56663,0],"engineType":"CE","exterior":"GOOD","fuel":100,"interior":"UNACCEPTABLE","name":"HH-GO8567","vin":"WME4513341K560975"},{"address":"Stengelestraße 39, 22111 Hamburg","coordinates":[10.0924,53.54978,0],"engineType":"CE","exterior":"GOOD","fuel":69,"interior":"GOOD","name":"HH-GO8589","vin":"WME4513341K560984"},{"address":"Flughafen HH (Mietwagenzentrum Ebene 1 oder 5)","coordinates":[10.00708,53.62914,0],"engineType":"CE","exterior":"GOOD","fuel":45,"interior":"GOOD","name":"HH-GO8569","vin":"WME4513341K561036"},{"address":"Volksdorfer Weg 5, 22391 Hamburg","coordinates":[10.0962,53.63933,0],"engineType":"CE","exterior":"GOOD","fuel":57,"interior":"GOOD","name":"HH-GO8573","vin":"WME4513341K561150"},{"address":"Parkplatz Studio Hamburg","coordinates":[10.12585,53.58416,0],"engineType":"CE","exterior":"UNACCEPTABLE","fuel":36,"interior":"GOOD","name":"HH-GO8575","vin":"WME4513341K561340"},{"address":"Feldbrunnenstraße 31, 20148 Hamburg","coordinates":[9.99063,53.56631,0],"engineType":"CE","exterior":"GOOD","fuel":96,"interior":"GOOD","name":"HH-GO8576","vin":"WME4513341K561498"},{"address":"Wentorfer Straße 45, 21029 Hamburg","coordinates":[10.22198,53.48768,0],"engineType":"CE","exterior":"GOOD","fuel":45,"interior":"GOOD","name":"HH-GO8577","vin":"WME4513341K561604"},{"address":"Öjendorfer Weg 63, 22119 Hamburg","coordinates":[10.11424,53.54494,0],"engineType":"CE","exterior":"UNACCEPTABLE","fuel":75,"interior":"UNACCEPTABLE","name":"HH-GO8581","vin":"WME4513341K562492"},{"address":"Schnackenburgallee 58, 22525 Hamburg","coordinates":[9.91925,53.58106,0],"engineType":"CE","exterior":"GOOD","fuel":75,"interior":"GOOD","name":"HH-GO8590","vin":"WME4513341K566524"},{"address":"Am Sandtorkai 54, 20457 Hamburg (Umkreis 300m)","coordinates":[9.99227,53.5432,0],"engineType":"CE","exterior":"GOOD","fuel":36,"interior":"GOOD","name":"HH-GO8584","vin":"WME4513341K567271"},{"address":"Brooktorkai 20, 20457 Hamburg","coordinates":[10.00155,53.54518,0],"engineType":"CE","exterior":"GOOD","fuel":39,"interior":"GOOD","name":"HH-GO8585","vin":"WME4513341K567392"},{"address":"Haldesdorfer Straße 88, 22179 Hamburg","coordinates":[10.07762,53.59961,0],"engineType":"CE","exterior":"GOOD","fuel":36,"interior":"GOOD","name":"HH-GO8586","vin":"WME4513341K567398"},{"address":"Schnackenburgallee 9, 22525 Hamburg","coordinates":[9.91871,53.57368,0],"engineType":"CE","exterior":"UNACCEPTABLE","fuel":87,"interior":"UNACCEPTABLE","name":"HH-GO8593","vin":"WME4513341K572223"},{"address":"Grosse Theaterstraße 4, 20354 Hamburg","coordinates":[9.99194,53.55616,0],"engineType":"CE","exterior":"UNACCEPTABLE","fuel":60,"interior":"GOOD","name":"HH-GO8595","vin":"WME4513341K571087"},{"address":"Ostende 35, 22045 Hamburg","coordinates":[10.11405,53.58706,0],"engineType":"CE","exterior":"GOOD","fuel":18,"interior":"GOOD","name":"HH-GO8596","vin":"WME4513341K567444"},{"address":"Adenauerallee 52, 20097 Hamburg (Umkreis 100m)","coordinates":[10.01751,53.55283,0],"engineType":"CE","exterior":"UNACCEPTABLE","fuel":100,"interior":"UNACCEPTABLE","name":"HH-GO8212","vin":"WME4513341K415336"},{"address":"Kehrwieder 2 - 7, 20457 Hamburg (Umkreis 300m)","coordinates":[9.98866,53.54413,0],"engineType":"CE","exterior":"GOOD","fuel":45,"interior":"UNACCEPTABLE","name":"HH-GO8261","vin":"WME4513341K415724"},{"address":"Freesenstraße 17, 22041 Hamburg","coordinates":[10.06624,53.56841,0],"engineType":"CE","exterior":"GOOD","fuel":100,"interior":"GOOD","name":"HH-GO8445","vin":"WME4513341K566995"},{"address":"Hansehof","coordinates":[10.12173,53.57905,0],"engineType":"CE","exterior":"GOOD","fuel":100,"interior":"UNACCEPTABLE","name":"HH-GO8488","vin":"WME4513341K413010"},{"address":"Vielohweg 138, 22455 Hamburg","coordinates":[9.94555,53.63812,0],"engineType":"CE","exterior":"GOOD","fuel":100,"interior":"GOOD","name":"HH-GO8278","vin":"WME4513341K415793"},{"address":"Drehbahn 1, 20354 Hamburg","coordinates":[9.98751,53.5566,0],"engineType":"CE","exterior":"GOOD","fuel":100,"interior":"GOOD","name":"HH-GO8037","vin":"WME4513341K414401"},{"address":"Sonnenredder 21, 22045 Hamburg","coordinates":[10.11765,53.58679,0],"engineType":"CE","exterior":"GOOD","fuel":33,"interior":"UNACCEPTABLE","name":"HH-GO8594","vin":"WME4513341K572297"},{"address":"Westerlandstraße 1 - 13, 22047 Hamburg (Umkreis 100m)","coordinates":[10.10619,53.58458,0],"engineType":"CE","exterior":"GOOD","fuel":54,"interior":"GOOD","name":"HH-GO8472","vin":"WME4513341K567588"},{"address":"Julius-Vosseler-Straße 41, 22527 Hamburg (Umkreis 300m)","coordinates":[9.94972,53.5963,0],"engineType":"CE","exterior":"GOOD","fuel":48,"interior":"GOOD","name":"HH-GO8157","vin":"WME4513341K414933"},{"address":"Neumühlen 41 - 48, 22763 Hamburg (Umkreis 100m)","coordinates":[9.91629,53.54422,0],"engineType":"CE","exterior":"UNACCEPTABLE","fuel":33,"interior":"GOOD","name":"HH-GO8349","vin":"WME4513341K564927"},{"address":"Susettestraße 9, 22763 Hamburg","coordinates":[9.92438,53.54767,0],"engineType":"CE","exterior":"GOOD","fuel":66,"interior":"GOOD","name":"HH-GO8101","vin":"WME4513341K414647"},{"address":"Ohnhorststraße 18, 22609 Hamburg (Umkreis 300m)","coordinates":[9.86409,53.55883,0],"engineType":"CE","exterior":"GOOD","fuel":39,"interior":"GOOD","name":"HH-GO8412","vin":"WME4513341K566374"},{"address":"Grindelallee 33, 20146 Hamburg","coordinates":[9.98225,53.56586,0],"engineType":"CE","exterior":"GOOD","fuel":90,"interior":"GOOD","name":"HH-GO8194","vin":"WME4513341K415164"},{"address":"Hartsprung 12, 22529 Hamburg","coordinates":[9.95784,53.60399,0],"engineType":"CE","exterior":"UNACCEPTABLE","fuel":100,"interior":"UNACCEPTABLE","name":"HH-GO8500","vin":"WME4513341K561098"},{"address":"Landwehrdamm 6, 20535 Hamburg","coordinates":[10.04045,53.56107,0],"engineType":"CE","exterior":"GOOD","fuel":100,"interior":"GOOD","name":"HH-GO8517","vin":"WME4513341K565544"},{"address":"Elbchaussee 162, 22605 Hamburg","coordinates":[9.91139,53.5462,0],"engineType":"CE","exterior":"GOOD","fuel":93,"interior":"GOOD","name":"HH-GO8578","vin":"WME4513341K561665"},{"address":"Meurerweg 3 - 5, 22111 Hamburg (Umkreis 100m)","coordinates":[10.08686,53.55362,0],"engineType":"CE","exterior":"GOOD","fuel":48,"interior":"GOOD","name":"HH-GO8391","vin":"WME4513341K565923"},{"address":"Struckholt 7, 22337 Hamburg","coordinates":[10.03023,53.62655,0],"engineType":"CE","exterior":"GOOD","fuel":45,"interior":"GOOD","name":"HH-GO8441","vin":"WME4513341K566959"},{"address":"Meyermannweg 10, 22529 Hamburg","coordinates":[9.9569,53.59715,0],"engineType":"CE","exterior":"GOOD","fuel":100,"interior":"GOOD","name":"HH-GO8560","vin":"WME4513341K560786"},{"address":"Schiffbeker Höhe 12, 22119 Hamburg","coordinates":[10.10962,53.54683,0],"engineType":"CE","exterior":"GOOD","fuel":100,"interior":"GOOD","name":"HH-GO8041","vin":"WME4513341K414427"},{"address":"Palmaille 114, 22767 Hamburg","coordinates":[9.93808,53.54644,0],"engineType":"CE","exterior":"GOOD","fuel":100,"interior":"UNACCEPTABLE","name":"HH-GO8559","vin":"WME4513341K560782"},{"address":"Lohbrügger Markt 1, 21031 Hamburg (Umkreis 100m)","coordinates":[10.20547,53.49559,0],"engineType":"CE","exterior":"GOOD","fuel":36,"interior":"GOOD","name":"HH-GO8198","vin":"WME4513341K415455"},{"address":"Steendammswisch 44, 22459 Hamburg","coordinates":[9.93985,53.62965,0],"engineType":"CE","exterior":"UNACCEPTABLE","fuel":100,"interior":"GOOD","name":"HH-GO8161","vin":"WME4513341K417642"},{"address":"Schnackenburgallee 52, 22525 Hamburg","coordinates":[9.91815,53.58022,0],"engineType":"CE","exterior":"UNACCEPTABLE","fuel":100,"interior":"UNACCEPTABLE","name":"HH-GO8265","vin":"WME4513341K415731"},{"address":"Walddörferstraße 214, 22047 Hamburg","coordinates":[10.08738,53.58087,0],"engineType":"CE","exterior":"GOOD","fuel":100,"interior":"GOOD","name":"HH-GO8121","vin":"WME4513341K413488"},{"address":"Martinistraße 52, 20251 Hamburg (Umkreis 300m)","coordinates":[9.97641,53.58908,0],"engineType":"CE","exterior":"GOOD","fuel":57,"interior":"GOOD","name":"HH-GO8574","vin":"WME4513341K561161"},{"address":"Grosse Theaterstraße 41, 20354 Hamburg","coordinates":[9.99091,53.55654,0],"engineType":"CE","exterior":"GOOD","fuel":81,"interior":"GOOD","name":"HH-GO8572","vin":"WME4513341K561139"},{"address":"Holztwiete 25, 22605 Hamburg","coordinates":[9.87341,53.54796,0],"engineType":"CE","exterior":"UNACCEPTABLE","fuel":33,"interior":"GOOD","name":"HH-GO8163","vin":"WME4513341K417706"},{"address":"Theodorstraße 1, 22761 Hamburg","coordinates":[9.89749,53.56608,0],"engineType":"CE","exterior":"GOOD","fuel":100,"interior":"GOOD","name":"HH-GO8074","vin":"WME4513341K414539"},{"address":"Rübenkamp 343, 22337 Hamburg","coordinates":[10.03255,53.61526,0],"engineType":"CE","exterior":"GOOD","fuel":21,"interior":"GOOD","name":"HH-GO8195","vin":"WME4513341K415448"},{"address":"Dörpkamp 4, 22527 Hamburg","coordinates":[9.92854,53.59298,0],"engineType":"CE","exterior":"UNACCEPTABLE","fuel":100,"interior":"UNACCEPTABLE","name":"HH-GO8199","vin":"WME4513341K415178"},{"address":"Wandsbeker Straße 17, 22179 Hamburg","coordinates":[10.07035,53.59936,0],"engineType":"CE","exterior":"GOOD","fuel":93,"interior":"GOOD","name":"HH-GO8396","vin":"WME4513341K565998"},{"address":"Martin-Luther-Straße 20, 20459 Hamburg","coordinates":[9.97911,53.54705,0],"engineType":"CE","exterior":"GOOD","fuel":100,"interior":"GOOD","name":"HH-GO8236","vin":"WME4513341K415618"},{"address":"Brook 1 - 2, 20457 Hamburg (Umkreis 100m)","coordinates":[9.99492,53.54488,0],"engineType":"CE","exterior":"GOOD","fuel":100,"interior":"GOOD","name":"HH-GO8073","vin":"WME4513341K413751"},{"address":"Parkplatz Lokstedter Holt (Mercedes Benz)","coordinates":[9.95112,53.61298,0],"engineType":"CE","exterior":"GOOD","fuel":100,"interior":"GOOD","name":"HH-GO8279","vin":"WME4513341K416201"},{"address":"Bodelschwinghstraße 18, 22337 Hamburg","coordinates":[10.02459,53.61507,0],"engineType":"CE","exterior":"GOOD","fuel":63,"interior":"GOOD","name":"HH-GO8520","vin":"WME4513341K564306"},{"address":"Rödingsmarkt 14, 20459 Hamburg","coordinates":[9.98535,53.54659,0],"engineType":"CE","exterior":"GOOD","fuel":66,"interior":"GOOD","name":"HH-GO8358","vin":"WME4513341K565107"},{"address":"Hammer Straße 115, 22043 Hamburg","coordinates":[10.06872,53.56125,0],"engineType":"CE","exterior":"UNACCEPTABLE","fuel":90,"interior":"GOOD","name":"HH-GO8376","vin":"WME4513341K565700"},{"address":"Am Kaiserkai 54, 20457 Hamburg","coordinates":[9.98688,53.54137,0],"engineType":"CE","exterior":"GOOD","fuel":100,"interior":"GOOD","name":"HH-GO8244","vin":"WME4513341K415639"},{"address":"Ziethenstraße 6, 22041 Hamburg","coordinates":[10.09801,53.57578,0],"engineType":"CE","exterior":"GOOD","fuel":100,"interior":"GOOD","name":"HH-GO8465","vin":"WME4513341K567434"},{"address":"Ansorgestraße 8, 22605 Hamburg","coordinates":[9.89604,53.55157,0],"engineType":"CE","exterior":"UNACCEPTABLE","fuel":36,"interior":"GOOD","name":"HH-GO8333","vin":"WME4513341K564563"},{"address":"Ruhrstraße 112, 22761 Hamburg","coordinates":[9.92438,53.56849,0],"engineType":"CE","exterior":"GOOD","fuel":30,"interior":"GOOD","name":"HH-GO8025","vin":"WME4513341K413584"},{"address":"Rondenbarg 17, 22525 Hamburg","coordinates":[9.92407,53.57469,0],"engineType":"CE","exterior":"GOOD","fuel":100,"interior":"GOOD","name":"HH-GO8437","vin":"WME4513341K566882"},{"address":"Brunnenkoppel 8, 22041 Hamburg","coordinates":[10.10754,53.57849,0],"engineType":"CE","exterior":"UNACCEPTABLE","fuel":100,"interior":"UNACCEPTABLE","name":"HH-GO8123","vin":"WME4513341K413956"},{"address":"Dulsberg-Nord 13, 22049 Hamburg (Umkreis 100m)","coordinates":[10.06033,53.58347,0],"engineType":"CE","exterior":"GOOD","fuel":42,"interior":"GOOD","name":"HH-GO8068","vin":"WME4513341K413740"},{"address":"Meriandamm 2, 22119 Hamburg","coordinates":[10.11104,53.5511,0],"engineType":"CE","exterior":"GOOD","fuel":100,"interior":"GOOD","name":"HH-GO8120","vin":"WME4513341K413985"},{"address":"Halifaxweg, 22297 Hamburg","coordinates":[10.02173,53.60861,0],"engineType":"CE","exterior":"GOOD","fuel":81,"interior":"GOOD","name":"HH-GO8324","vin":"WME4513341K564325"},{"address":"Steintorwall 15, 20095 Hamburg","coordinates":[10.0064,53.5509,0],"engineType":"CE","exterior":"GOOD","fuel":78,"interior":"GOOD","name":"HH-GO8418","vin":"WME4513341K566584"},{"address":"Haferkamp 6, 22081 Hamburg","coordinates":[10.04513,53.5818,0],"engineType":"CE","exterior":"GOOD","fuel":87,"interior":"GOOD","name":"HH-GO8556","vin":"WME4513341K560732"},{"address":"Ness 7, 20457 Hamburg","coordinates":[9.99292,53.54858,0],"engineType":"CE","exterior":"UNACCEPTABLE","fuel":39,"interior":"UNACCEPTABLE","name":"HH-GO8471","vin":"WME4513341K567514"},{"address":"Gertigstraße 19, 22303 Hamburg","coordinates":[10.01442,53.58186,0],"engineType":"CE","exterior":"GOOD","fuel":100,"interior":"GOOD","name":"HH-GO8270","vin":"WME4513341K415865"},{"address":"Harzburger Weg 28, 22459 Hamburg","coordinates":[9.94671,53.631,0],"engineType":"CE","exterior":"GOOD","fuel":100,"interior":"GOOD","name":"HH-GO8114","vin":"WME4513341K414692"},{"address":"Stormarnplatz 4, 22393 Hamburg","coordinates":[10.0942,53.65135,0],"engineType":"CE","exterior":"GOOD","fuel":60,"interior":"GOOD","name":"HH-GO8110","vin":"WME4513341K413440"},{"address":"Parkhaus Bleichenhof, Parkdeck R","coordinates":[9.98673,53.55201,0],"engineType":"CE","exterior":"GOOD","fuel":45,"interior":"UNACCEPTABLE","name":"HH-GO8207","vin":"WME4513341K415477"},{"address":"Alsterdorfer Straße 512, 22337 Hamburg","coordinates":[10.02725,53.61741,0],"engineType":"CE","exterior":"GOOD","fuel":36,"interior":"GOOD","name":"HH-GO8383","vin":"WME4513341K565789"},{"address":"Ballindamm 25, 20095 Hamburg","coordinates":[9.99805,53.55384,0],"engineType":"CE","exterior":"UNACCEPTABLE","fuel":24,"interior":"UNACCEPTABLE","name":"HH-GO8444","vin":"WME4513341K566975"},{"address":"Krochmannstraße 86, 22297 Hamburg","coordinates":[10.0079,53.60308,0],"engineType":"CE","exterior":"GOOD","fuel":51,"interior":"UNACCEPTABLE","name":"HH-GO8182","vin":"WME4513341K417803"},{"address":"Holzdamm 38, 20099 Hamburg","coordinates":[10.0063,53.55517,0],"engineType":"CE","exterior":"GOOD","fuel":54,"interior":"GOOD","name":"HH-GO8519","vin":"WME4513341K571443"},{"address":"Elbchaussee 247, 22605 Hamburg","coordinates":[9.88162,53.54649,0],"engineType":"CE","exterior":"GOOD","fuel":63,"interior":"GOOD","name":"HH-GO8571","vin":"WME4513341K561085"},{"address":"Ulmenliet 39 - 41, 21033 Hamburg (Umkreis 100m)","coordinates":[10.20148,53.49183,0],"engineType":"CE","exterior":"UNACCEPTABLE","fuel":81,"interior":"UNACCEPTABLE","name":"HH-GO8109","vin":"WME4513341K413916"},{"address":"Volksparkstraße 73, 22525 Hamburg","coordinates":[9.9196,53.59057,0],"engineType":"CE","exterior":"GOOD","fuel":93,"interior":"GOOD","name":"HH-GO8118","vin":"WME4513341K413474"},{"address":"Marienthaler Straße 91, 20535 Hamburg","coordinates":[10.04949,53.56301,0],"engineType":"CE","exterior":"UNACCEPTABLE","fuel":45,"interior":"UNACCEPTABLE","name":"HH-GO8332","vin":"WME4513341K564497"},{"address":"Van-der-Smissen-Straße 4, 22767 Hamburg (Umkreis 300m)","coordinates":[9.93796,53.54407,0],"engineType":"CE","exterior":"UNACCEPTABLE","fuel":36,"interior":"GOOD","name":"HH-GO8023","vin":"WME4513341K414294"},{"address":"Marco-Polo-Terrassen, 20457 Hamburg","coordinates":[9.9936,53.54082,0],"engineType":"CE","exterior":"GOOD","fuel":100,"interior":"GOOD","name":"HH-GO8266","vin":"WME4513341K416232"},{"address":"Nesselstraße 7, 22335 Hamburg","coordinates":[10.01678,53.62075,0],"engineType":"CE","exterior":"GOOD","fuel":100,"interior":"GOOD","name":"HH-GO8147","vin":"WME4513341K414869"},{"address":"Holstenhofweg 85, 22043 Hamburg (Umkreis 300m)","coordinates":[10.10573,53.56983,0],"engineType":"CE","exterior":"GOOD","fuel":33,"interior":"GOOD","name":"HH-GO8394","vin":"WME4513341K565947"},{"address":"Brooktorkai 12, 20457 Hamburg","coordinates":[9.99981,53.54484,0],"engineType":"CE","exterior":"UNACCEPTABLE","fuel":90,"interior":"GOOD","name":"HH-GO8224","vin":"WME4513341K416343"}]}